$GPRMC,062348.000,A,4116.4843,N,00159.2493,E,0.00,0.00,040413,,*02
$GPGGA,062348.000,4116.4843,N,00159.2493,E,1,05,4.4,52.4,M,0.0,M,0.0,0000*77
$GPGSA,M,3,01,11,17,20,32,,,,,,,,5.1,4.4,2.5*39
$GPGSV,2,1,05,01,64,103,52,11,43,136,49,17,39,299,49,20,76,333,48*78
$GPGSV,2,2,05,32,57,047,48*40
$GPRMC,062348.000,A,4116.4842,N,00159.2487,E,0.00,0.00,040413,,*06
$GPGGA,062348.000,4116.4842,N,00159.2487,E,1,05,4.4,54.3,M,0.0,M,0.0,0000*72
$GPGSA,M,3,01,11,17,20,32,,,,,,,,5.1,4.4,2.5*39
$GPGSV,2,1,05,01,64,103,50,11,43,136,51,17,39,299,47,20,76,333,45*70
$GPGSV,2,2,05,32,57,047,48*40
$GPRMC,062349.000,A,4116.4844,N,00159.2494,E,0.00,0.00,040413,,*03
$GPGGA,062349.000,4116.4844,N,00159.2494,E,1,05,4.4,51.9,M,0.0,M,0.0,0000*78
$GPGSA,M,3,01,11,17,20,32,,,,,,,,5.1,4.4,2.5*39
$GPGSV,2,1,05,01,64,103,51,11,43,136,48,17,39,299,48,20,76,333,48*7b
$GPGSV,2,2,05,32,57,047,49*41
$GPRMC,062349.000,A,4116.4849,N,00159.2497,E,0.00,0.00,040413,,*0d
$GPGGA,062349.000,4116.4849,N,00159.2497,E,1,05,4.4,51.5,M,0.0,M,0.0,0000*7a
$GPGSA,M,3,01,11,17,20,32,,,,,,,,5.1,4.4,2.5*39
$GPGSV,2,1,05,01,64,103,50,11,43,136,51,17,39,299,47,20,76,333,48*7d
$GPGSV,2,2,05,32,57,047,49*41
$GPRMC,062349.000,A,4116.4852,N,00159.2499,E,0.00,0.00,040413,,*09
$GPGGA,062349.000,4116.4852,N,00159.2499,E,1,05,4.4,50.8,M,0.0,M,0.0,0000*72
$GPGSA,M,3,01,11,17,20,32,,,,,,,,5.1,4.4,2.5*39
$GPGSV,2,1,05,01,64,103,48,11,43,136,49,17,39,299,47,20,76,333,46*73
$GPGSV,2,2,05,32,57,047,48*40
$GPRMC,062349.000,A,4116.4850,N,00159.2501,E,0.00,0.00,040413,,*0b
$GPGGA,062349.000,4116.4850,N,00159.2501,E,1,05,4.4,50.7,M,0.0,M,0.0,0000*7f
$GPGSA,M,3,01,11,17,20,32,,,,,,,,5.1,4.4,2.5*39
$GPGSV,2,1,05,01,64,103,49,11,43,136,45,17,39,299,46,20,76,333,46*7f
$GPGSV,2,2,05,32,57,047,50*49
$GPRMC,062349.000,A,4116.4854,N,00159.2500,E,0.00,0.00,040413,,*0e
$GPGGA,062349.000,4116.4854,N,00159.2500,E,1,05,4.4,56.5,M,0.0,M,0.0,0000*7e
$GPGSA,M,3,01,11,17,20,32,,,,,,,,5.1,4.4,2.5*39
$GPGSV,2,1,05,01,64,103,52,11,43,136,47,17,39,299,48,20,76,333,45*7a
$GPGSV,2,2,05,32,57,047,48*40
$GPRMC,062349.000,A,4116.4857,N,00159.2507,E,0.00,0.00,040413,,*0a
$GPGGA,062349.000,4116.4857,N,00159.2507,E,1,05,4.4,58.7,M,0.0,M,0.0,0000*76
$GPGSA,M,3,01,11,17,20,32,,,,,,,,5.1,4.4,2.5*39
$GPGSV,2,1,05,01,64,103,50,11,43,136,47,17,39,299,47,20,76,333,46*74
$GPGSV,2,2,05,32,57,047,49*41
$GPRMC,062349.000,A,4116.4860,N,00159.2510,E,0.00,0.00,040413,,*08
$GPGGA,062349.000,4116.4860,N,00159.2510,E,1,05,4.4,57.8,M,0.0,M,0.0,0000*74
$GPGSA,M,3,01,11,17,20,32,,,,,,,,5.1,4.4,2.5*39
$GPGSV,2,1,05,01,64,103,51,11,43,136,46,17,39,299,47,20,76,333,46*74
$GPGSV,2,2,05,32,57,047,47*4f
$GPRMC,062349.000,A,4116.4872,N,00159.2513,E,0.00,0.00,040413,,*08
$GPGGA,062349.000,4116.4872,N,00159.2513,E,1,05,4.4,58.8,M,0.0,M,0.0,0000*7b
$GPGSA,M,3,01,11,17,20,32,,,,,,,,5.1,4.4,2.5*39
$GPGSV,2,1,05,01,64,103,50,11,43,136,47,17,39,299,46,20,76,333,48*7b
$GPGSV,2,2,05,32,57,047,48*40
$GPRMC,062349.000,A,4116.4870,N,00159.2521,E,0.00,0.00,040413,,*0b
$GPGGA,062349.000,4116.4870,N,00159.2521,E,1,05,4.4,56.8,M,0.0,M,0.0,0000*76
$GPGSA,M,3,01,11,17,20,32,,,,,,,,5.1,4.4,2.5*39
$GPGSV,2,1,05,01,64,103,49,11,43,136,44,17,39,299,47,20,76,333,48*71
$GPGSV,2,2,05,32,57,047,47*4f
$GPRMC,062349.000,A,4116.4868,N,00159.2514,E,0.00,0.00,040413,,*04
$GPGGA,062349.000,4116.4868,N,00159.2514,E,1,05,4.4,59.7,M,0.0,M,0.0,0000*79
$GPGSA,M,3,01,11,17,20,32,,,,,,,,5.1,4.4,2.5*39
$GPGSV,2,1,05,01,64,103,50,11,43,136,45,17,39,299,48,20,76,333,47*78
$GPGSV,2,2,05,32,57,047,48*40
$GPRMC,062350.000,A,4116.4867,N,00159.2509,E,0.00,0.00,040413,,*0f
$GPGGA,062350.000,4116.4867,N,00159.2509,E,1,05,4.4,62.2,M,0.0,M,0.0,0000*7f
$GPGSA,M,3,01,11,17,20,32,,,,,,,,5.1,4.4,2.5*39
$GPGSV,2,1,05,01,64,103,51,11,43,136,46,17,39,299,46,20,76,333,47*74
$GPGSV,2,2,05,32,57,047,47*4f
$GPRMC,062350.000,A,4116.4857,N,00159.2502,E,0.00,0.00,040413,,*07
$GPGGA,062350.000,4116.4857,N,00159.2502,E,1,05,4.4,63.5,M,0.0,M,0.0,0000*71
$GPGSA,M,3,01,11,17,20,32,,,,,,,,5.1,4.4,2.5*39
$GPGSV,2,1,05,01,64,103,52,11,43,136,49,17,39,299,48,20,76,333,48*79
$GPGSV,2,2,05,32,57,047,47*4f
$GPRMC,062350.000,A,4116.4855,N,00159.2495,E,0.00,0.00,040413,,*0a
$GPGGA,062350.000,4116.4855,N,00159.2495,E,1,05,4.4,65.5,M,0.0,M,0.0,0000*7a
$GPGSA,M,3,01,11,17,20,32,,,,,,,,5.1,4.4,2.5*39
$GPGSV,2,1,05,01,64,103,50,11,43,136,47,17,39,299,49,20,76,333,45*79
$GPGSV,2,2,05,32,57,047,49*41
$GPRMC,062350.000,A,4116.4849,N,00159.2494,E,0.00,0.00,040413,,*06
$GPGGA,062350.000,4116.4849,N,00159.2494,E,1,05,4.4,65.7,M,0.0,M,0.0,0000*74
$GPGSA,M,3,01,11,17,20,32,,,,,,,,5.1,4.4,2.5*39
$GPGSV,2,1,05,01,64,103,54,11,43,136,49,17,39,299,48,20,76,333,46*71
$GPGSV,2,2,05,32,57,047,50*49
$GPRMC,062350.000,A,4116.4841,N,00159.2498,E,0.00,0.00,040413,,*02
$GPGGA,062350.000,4116.4841,N,00159.2498,E,1,05,4.4,63.7,M,0.0,M,0.0,0000*76
$GPGSA,M,3,01,11,17,20,32,,,,,,,,5.1,4.4,2.5*39
$GPGSV,2,1,05,01,64,103,51,11,43,136,48,17,39,299,45,20,76,333,45*7b
$GPGSV,2,2,05,32,57,047,49*41
$GPRMC,062350.000,A,4116.4852,N,00159.2505,E,0.00,0.00,040413,,*05
$GPGGA,062350.000,4116.4852,N,00159.2505,E,1,05,4.4,62.4,M,0.0,M,0.0,0000*73
$GPGSA,M,3,01,11,17,20,32,,,,,,,,5.1,4.4,2.5*39
$GPGSV,2,1,05,01,64,103,53,11,43,136,49,17,39,299,47,20,76,333,46*79
$GPGSV,2,2,05,32,57,047,49*41
$GPRMC,062350.000,A,4116.4854,N,00159.2506,E,0.00,0.00,040413,,*00
$GPGGA,062350.000,4116.4854,N,00159.2506,E,1,05,4.4,61.3,M,0.0,M,0.0,0000*72
$GPGSA,M,3,01,11,17,20,32,,,,,,,,5.1,4.4,2.5*39
$GPGSV,2,1,05,01,64,103,52,11,43,136,47,17,39,299,44,20,76,333,47*74
$GPGSV,2,2,05,32,57,047,49*41
$GPRMC,062350.000,A,4116.4843,N,00159.2502,E,0.00,0.00,040413,,*02
$GPGGA,062350.000,4116.4843,N,00159.2502,E,1,05,4.4,60.2,M,0.0,M,0.0,0000*70
$GPGSA,M,3,01,11,17,20,32,,,,,,,,5.1,4.4,2.5*39
$GPGSV,2,1,05,01,64,103,50,11,43,136,46,17,39,299,47,20,76,333,47*74
$GPGSV,2,2,05,32,57,047,48*40
$GPRMC,062350.000,A,4116.4843,N,00159.2500,E,0.00,0.00,040413,,*00
$GPGGA,062350.000,4116.4843,N,00159.2500,E,1,05,4.4,64.6,M,0.0,M,0.0,0000*72
$GPGSA,M,3,01,11,17,20,32,,,,,,,,5.1,4.4,2.5*39
$GPGSV,2,1,05,01,64,103,51,11,43,136,48,17,39,299,45,20,76,333,46*78
$GPGSV,2,2,05,32,57,047,52*4b
$GPRMC,062350.000,A,4116.4843,N,00159.2505,E,0.00,0.00,040413,,*05
$GPGGA,062350.000,4116.4843,N,00159.2505,E,1,05,4.4,62.5,M,0.0,M,0.0,0000*72
$GPGSA,M,3,01,11,17,20,32,,,,,,,,5.1,4.4,2.5*39
$GPGSV,2,1,05,01,64,103,51,11,43,136,50,17,39,299,46,20,76,333,46*72
$GPGSV,2,2,05,32,57,047,47*4f
$GPRMC,062351.000,A,4116.4847,N,00159.2512,E,0.00,0.00,040413,,*06
$GPGGA,062351.000,4116.4847,N,00159.2512,E,1,05,4.4,62.3,M,0.0,M,0.0,0000*77
$GPGSA,M,3,01,11,17,20,32,,,,,,,,5.1,4.4,2.5*39
$GPGSV,2,1,05,01,64,103,51,11,43,136,48,17,39,299,49,20,76,333,46*74
$GPGSV,2,2,05,32,57,047,50*49
$GPRMC,062351.000,A,4116.4843,N,00159.2510,E,0.00,0.00,040413,,*00
$GPGGA,062351.000,4116.4843,N,00159.2510,E,1,05,4.4,63.7,M,0.0,M,0.0,0000*74
$GPGSA,M,3,01,11,17,20,32,,,,,,,,5.1,4.4,2.5*39
$GPGSV,2,1,05,01,64,103,52,11,43,136,48,17,39,299,47,20,76,333,46*79
$GPGSV,2,2,05,32,57,047,50*49
$GPRMC,062351.000,A,4116.4831,N,00159.2512,E,0.00,0.00,040413,,*07
$GPGGA,062351.000,4116.4831,N,00159.2512,E,1,05,4.4,64.6,M,0.0,M,0.0,0000*75
$GPGSA,M,3,01,11,17,20,32,,,,,,,,5.1,4.4,2.5*39
$GPGSV,2,1,05,01,64,103,50,11,43,136,47,17,39,299,50,20,76,333,47*73
$GPGSV,2,2,05,32,57,047,48*40
$GPRMC,062351.000,A,4116.4831,N,00159.2509,E,0.00,0.00,040413,,*0d
$GPGGA,062351.000,4116.4831,N,00159.2509,E,1,05,4.4,67.7,M,0.0,M,0.0,0000*7d
$GPGSA,M,3,01,11,17,20,32,,,,,,,,5.1,4.4,2.5*39
$GPGSV,2,1,05,01,64,103,51,11,43,136,47,17,39,299,49,20,76,333,46*7b
$GPGSV,2,2,05,32,57,047,51*48
$GPRMC,062351.000,A,4116.4829,N,00159.2502,E,0.00,0.00,040413,,*0f
$GPGGA,062351.000,4116.4829,N,00159.2502,E,1,05,4.4,68.0,M,0.0,M,0.0,0000*77
$GPGSA,M,3,01,11,17,20,32,,,,,,,,5.1,4.4,2.5*39
$GPGSV,2,1,05,01,64,103,50,11,43,136,48,17,39,299,47,20,76,333,46*7b
$GPGSV,2,2,05,32,57,047,49*41
$GPRMC,062351.000,A,4116.4822,N,00159.2500,E,0.00,0.00,040413,,*06
$GPGGA,062351.000,4116.4822,N,00159.2500,E,1,05,4.4,65.5,M,0.0,M,0.0,0000*76
$GPGSA,M,3,01,11,17,20,32,,,,,,,,5.1,4.4,2.5*39
$GPGSV,2,1,05,01,64,103,50,11,43,136,49,17,39,299,48,20,76,333,47*74
$GPGSV,2,2,05,32,57,047,51*48
$GPRMC,062351.000,A,4116.4816,N,00159.2499,E,0.00,0.00,040413,,*00
$GPGGA,062351.000,4116.4816,N,00159.2499,E,1,05,4.4,68.6,M,0.0,M,0.0,0000*7e
$GPGSA,M,3,01,11,17,20,32,,,,,,,,5.1,4.4,2.5*39
$GPGSV,2,1,05,01,64,103,50,11,43,136,47,17,39,299,46,20,76,333,46*75
$GPGSV,2,2,05,32,57,047,48*40
$GPRMC,062351.000,A,4116.4814,N,00159.2498,E,0.00,0.00,040413,,*03
$GPGGA,062351.000,4116.4814,N,00159.2498,E,1,05,4.4,68.7,M,0.0,M,0.0,0000*7c
$GPGSA,M,3,01,11,17,20,32,,,,,,,,5.1,4.4,2.5*39
$GPGSV,2,1,05,01,64,103,51,11,43,136,47,17,39,299,48,20,76,333,46*7a
$GPGSV,2,2,05,32,57,047,49*41
$GPRMC,062351.000,A,4116.4824,N,00159.2509,E,0.00,0.00,040413,,*09
$GPGGA,062351.000,4116.4824,N,00159.2509,E,1,05,4.4,63.1,M,0.0,M,0.0,0000*7b
$GPGSA,M,3,01,11,17,20,32,,,,,,,,5.1,4.4,2.5*39
$GPGSV,2,1,05,01,64,103,50,11,43,136,46,17,39,299,47,20,76,333,48*7b
$GPGSV,2,2,05,32,57,047,47*4f
$GPRMC,062351.000,A,4116.4829,N,00159.2509,E,0.00,0.00,040413,,*04
$GPGGA,062351.000,4116.4829,N,00159.2509,E,1,05,4.4,62.6,M,0.0,M,0.0,0000*70
$GPGSA,M,3,01,11,17,20,32,,,,,,,,5.1,4.4,2.5*39
$GPGSV,2,1,05,01,64,103,50,11,43,136,47,17,39,299,51,20,76,333,45*70
$GPGSV,2,2,05,32,57,047,50*49
$GPRMC,062352.000,A,4116.4827,N,00159.2516,E,0.00,0.00,040413,,*07
$GPGGA,062352.000,4116.4827,N,00159.2516,E,1,05,4.4,57.7,M,0.0,M,0.0,0000*74
$GPGSA,M,3,01,11,17,20,32,,,,,,,,5.1,4.4,2.5*39
$GPGSV,2,1,05,01,64,103,50,11,43,136,47,17,39,299,50,20,76,333,46*72
$GPGSV,2,2,05,32,57,047,52*4b
$GPRMC,062352.000,A,4116.4835,N,00159.2520,E,0.00,0.00,040413,,*01
$GPGGA,062352.000,4116.4835,N,00159.2520,E,1,05,4.4,57.9,M,0.0,M,0.0,0000*7c
$GPGSA,M,3,01,11,17,20,32,,,,,,,,5.1,4.4,2.5*39
$GPGSV,2,1,05,01,64,103,50,11,43,136,46,17,39,299,50,20,76,333,46*73
$GPGSV,2,2,05,32,57,047,47*4f
$GPRMC,062352.000,A,4116.4840,N,00159.2515,E,0.00,0.00,040413,,*05
$GPGGA,062352.000,4116.4840,N,00159.2515,E,1,05,4.4,59.6,M,0.0,M,0.0,0000*79
$GPGSA,M,3,01,11,17,20,32,,,,,,,,5.1,4.4,2.5*39
$GPGSV,2,1,05,01,64,103,49,11,43,136,48,17,39,299,49,20,76,333,46*7d
$GPGSV,2,2,05,32,57,047,48*40
$GPRMC,062352.000,A,4116.4841,N,00159.2522,E,0.00,0.00,040413,,*00
$GPGGA,062352.000,4116.4841,N,00159.2522,E,1,05,4.4,58.2,M,0.0,M,0.0,0000*79
$GPGSA,M,3,01,11,17,20,32,,,,,,,,5.1,4.4,2.5*39
$GPGSV,2,1,05,01,64,103,51,11,43,136,47,17,39,299,49,20,76,333,43*7e
$GPGSV,2,2,05,32,57,047,51*48
$GPRMC,062352.000,A,4116.4841,N,00159.2520,E,0.00,0.00,040413,,*02
$GPGGA,062352.000,4116.4841,N,00159.2520,E,1,05,4.4,59.5,M,0.0,M,0.0,0000*7d
$GPGSA,M,3,01,11,17,20,32,,,,,,,,5.1,4.4,2.5*39
$GPGSV,2,1,05,01,64,103,51,11,43,136,48,17,39,299,46,20,76,333,46*7b
$GPGSV,2,2,05,32,57,047,52*4b
$GPRMC,062352.000,A,4116.4844,N,00159.2517,E,0.00,0.00,040413,,*03
$GPGGA,062352.000,4116.4844,N,00159.2517,E,1,05,4.4,61.3,M,0.0,M,0.0,0000*71
$GPGSA,M,3,01,11,17,20,32,,,,,,,,5.1,4.4,2.5*39
$GPGSV,2,1,05,01,64,103,52,11,43,136,46,17,39,299,46,20,76,333,46*76
$GPGSV,2,2,05,32,57,047,50*49
$GPRMC,062352.000,A,4116.4844,N,00159.2523,E,0.00,0.00,040413,,*04
$GPGGA,062352.000,4116.4844,N,00159.2523,E,1,05,4.4,59.2,M,0.0,M,0.0,0000*7c
$GPGSA,M,3,01,11,17,20,32,,,,,,,,5.1,4.4,2.5*39
$GPGSV,2,1,05,01,64,103,52,11,43,136,47,17,39,299,47,20,76,333,46*76
$GPGSV,2,2,05,32,57,047,52*4b
$GPRMC,062352.000,A,4116.4844,N,00159.2521,E,0.00,0.00,040413,,*06
$GPGGA,062352.000,4116.4844,N,00159.2521,E,1,05,4.4,58.7,M,0.0,M,0.0,0000*7a
$GPGSA,M,3,01,11,17,20,32,,,,,,,,5.1,4.4,2.5*39
$GPGSV,2,1,05,01,64,103,51,11,43,136,49,17,39,299,48,20,76,333,48*7a
$GPGSV,2,2,05,32,57,047,52*4b
$GPRMC,062352.000,A,4116.4835,N,00159.2509,E,0.00,0.00,040413,,*0a
$GPGGA,062352.000,4116.4835,N,00159.2509,E,1,05,4.4,60.7,M,0.0,M,0.0,0000*7d
$GPGSA,M,3,01,11,17,20,32,,,,,,,,5.1,4.4,2.5*39
$GPGSV,2,1,05,01,64,103,52,11,43,136,49,17,39,299,47,20,76,333,47*79
$GPGSV,2,2,05,32,57,047,49*41
$GPRMC,062352.000,A,4116.4833,N,00159.2511,E,0.00,0.00,040413,,*05
$GPGGA,062352.000,4116.4833,N,00159.2511,E,1,05,4.4,60.2,M,0.0,M,0.0,0000*77
$GPGSA,M,3,01,11,17,20,32,,,,,,,,5.1,4.4,2.5*39
$GPGSV,2,1,05,01,64,103,51,11,43,136,47,17,39,299,48,20,76,333,47*7b
$GPGSV,2,2,05,32,57,047,51*48
$GPRMC,062353.000,A,4116.4840,N,00159.2506,E,0.00,0.00,040413,,*06
$GPGGA,062353.000,4116.4840,N,00159.2506,E,1,05,4.4,64.3,M,0.0,M,0.0,0000*71
$GPGSA,M,3,01,11,17,20,32,,,,,,,,5.1,4.4,2.5*39
$GPGSV,2,1,05,01,64,103,51,11,43,136,44,17,39,299,47,20,76,333,49*79
$GPGSV,2,2,05,32,57,047,50*49
$GPRMC,062353.000,A,4116.4841,N,00159.2511,E,0.00,0.00,040413,,*01
$GPGGA,062353.000,4116.4841,N,00159.2511,E,1,05,4.4,61.0,M,0.0,M,0.0,0000*70
$GPGSA,M,3,01,11,17,20,32,,,,,,,,5.1,4.4,2.5*39
$GPGSV,2,1,05,01,64,103,51,11,43,136,45,17,39,299,46,20,76,333,49*79
$GPGSV,2,2,05,32,57,047,49*41
$GPRMC,062353.000,A,4116.4841,N,00159.2514,E,0.00,0.00,040413,,*04
$GPGGA,062353.000,4116.4841,N,00159.2514,E,1,05,4.4,60.7,M,0.0,M,0.0,0000*73
$GPGSA,M,3,01,11,17,20,32,,,,,,,,5.1,4.4,2.5*39
$GPGSV,2,1,05,01,64,103,52,11,43,136,47,17,39,299,44,20,76,333,46*75
$GPGSV,2,2,05,32,57,047,50*49
$GPRMC,062353.000,A,4116.4850,N,00159.2518,E,0.00,0.00,040413,,*08
$GPGGA,062353.000,4116.4850,N,00159.2518,E,1,05,4.4,60.8,M,0.0,M,0.0,0000*70
$GPGSA,M,3,01,11,17,20,32,,,,,,,,5.1,4.4,2.5*39
$GPGSV,2,1,05,01,64,103,49,11,43,136,47,17,39,299,46,20,76,333,46*7d
$GPGSV,2,2,05,32,57,047,50*49
$GPRMC,062353.000,A,4116.4845,N,00159.2520,E,0.00,0.00,040413,,*07
$GPGGA,062353.000,4116.4845,N,00159.2520,E,1,05,4.4,61.0,M,0.0,M,0.0,0000*76
$GPGSA,M,3,01,11,17,20,32,,,,,,,,5.1,4.4,2.5*39
$GPGSV,2,1,05,01,64,103,53,11,43,136,48,17,39,299,46,20,76,333,47*78
$GPGSV,2,2,05,32,57,047,48*40
$GPRMC,062353.000,A,4116.4839,N,00159.2513,E,0.00,0.00,040413,,*0c
$GPGGA,062353.000,4116.4839,N,00159.2513,E,1,05,4.4,62.9,M,0.0,M,0.0,0000*77
$GPGSA,M,3,01,11,17,20,32,,,,,,,,5.1,4.4,2.5*39
$GPGSV,2,1,05,01,64,103,53,11,43,136,47,17,39,299,46,20,76,333,46*76
$GPGSV,2,2,05,32,57,047,51*48
$GPRMC,062353.000,A,4116.4845,N,00159.2509,E,0.00,0.00,040413,,*0c
$GPGGA,062353.000,4116.4845,N,00159.2509,E,1,05,4.4,64.9,M,0.0,M,0.0,0000*71
$GPGSA,M,3,01,11,17,20,32,,,,,,,,5.1,4.4,2.5*39
$GPGSV,2,1,05,01,64,103,49,11,43,136,48,17,39,299,47,20,76,333,44*71
$GPGSV,2,2,05,32,57,047,52*4b
$GPRMC,062353.000,A,4116.4840,N,00159.2505,E,0.00,0.00,040413,,*05
$GPGGA,062353.000,4116.4840,N,00159.2505,E,1,05,4.4,65.9,M,0.0,M,0.0,0000*79
$GPGSA,M,3,01,11,17,20,32,,,,,,,,5.1,4.4,2.5*39
$GPGSV,2,1,05,01,64,103,50,11,43,136,48,17,39,299,48,20,76,333,45*77
$GPGSV,2,2,05,32,57,047,49*41
$GPRMC,062353.000,A,4116.4855,N,00159.2522,E,0.00,0.00,040413,,*04
$GPGGA,062353.000,4116.4855,N,00159.2522,E,1,05,4.4,64.0,M,0.0,M,0.0,0000*70
$GPGSA,M,3,01,11,17,20,32,,,,,,,,5.1,4.4,2.5*39
$GPGSV,2,1,05,01,64,103,52,11,43,136,45,17,39,299,45,20,76,333,46*76
$GPGSV,2,2,05,32,57,047,49*41
$GPRMC,062353.000,A,4116.4862,N,00159.2525,E,0.00,0.00,040413,,*07
$GPGGA,062353.000,4116.4862,N,00159.2525,E,1,05,4.4,62.8,M,0.0,M,0.0,0000*7d
$GPGSA,M,3,01,11,17,20,32,,,,,,,,5.1,4.4,2.5*39
$GPGSV,2,1,05,01,64,103,51,11,43,136,46,17,39,299,49,20,76,333,48*74
$GPGSV,2,2,05,32,57,047,50*49
$GPRMC,062354.000,A,4116.4857,N,00159.2524,E,0.00,0.00,040413,,*07
$GPGGA,062354.000,4116.4857,N,00159.2524,E,1,05,4.4,59.6,M,0.0,M,0.0,0000*7b
$GPGSA,M,3,01,11,17,20,32,,,,,,,,5.1,4.4,2.5*39
$GPGSV,2,1,05,01,64,103,54,11,43,136,47,17,39,299,46,20,76,333,46*71
$GPGSV,2,2,05,32,57,047,52*4b
$GPRMC,062354.000,A,4116.4867,N,00159.2526,E,0.00,0.00,040413,,*06
$GPGGA,062354.000,4116.4867,N,00159.2526,E,1,05,4.4,58.0,M,0.0,M,0.0,0000*7d
$GPGSA,M,3,01,11,17,20,32,,,,,,,,5.1,4.4,2.5*39
$GPGSV,2,1,05,01,64,103,50,11,43,136,46,17,39,299,48,20,76,333,47*7b
$GPGSV,2,2,05,32,57,047,52*4b
$GPRMC,062354.000,A,4116.4865,N,00159.2526,E,0.00,0.00,040413,,*04
$GPGGA,062354.000,4116.4865,N,00159.2526,E,1,05,4.4,57.3,M,0.0,M,0.0,0000*73
$GPGSA,M,3,01,11,17,20,32,,,,,,,,5.1,4.4,2.5*39
$GPGSV,2,1,05,01,64,103,49,11,43,136,47,17,39,299,46,20,76,333,47*7c
$GPGSV,2,2,05,32,57,047,51*48
$GPRMC,062354.000,A,4116.4865,N,00159.2526,E,0.00,0.00,040413,,*04
$GPGGA,062354.000,4116.4865,N,00159.2526,E,1,05,4.4,56.4,M,0.0,M,0.0,0000*75
$GPGSA,M,3,01,11,17,20,32,,,,,,,,5.1,4.4,2.5*39
$GPGSV,2,1,05,01,64,103,49,11,43,136,47,17,39,299,49,20,76,333,48*7c
$GPGSV,2,2,05,32,57,047,51*48
$GPRMC,062354.000,A,4116.4874,N,00159.2527,E,0.00,0.00,040413,,*05
$GPGGA,062354.000,4116.4874,N,00159.2527,E,1,05,4.4,56.4,M,0.0,M,0.0,0000*74
$GPGSA,M,3,01,11,17,20,32,,,,,,,,5.1,4.4,2.5*39
$GPGSV,2,1,05,01,64,103,51,11,43,136,46,17,39,299,47,20,76,333,47*75
$GPGSV,2,2,05,32,57,047,47*4f
$GPRMC,062354.000,A,4116.4869,N,00159.2524,E,0.00,0.00,040413,,*0a
$GPGGA,062354.000,4116.4869,N,00159.2524,E,1,05,4.4,57.7,M,0.0,M,0.0,0000*79
$GPGSA,M,3,01,11,17,20,32,,,,,,,,5.1,4.4,2.5*39
$GPGSV,2,1,05,01,64,103,51,11,43,136,49,17,39,299,47,20,76,333,47*7a
$GPGSV,2,2,05,32,57,047,50*49
$GPRMC,062354.000,A,4116.4870,N,00159.2524,E,0.00,0.00,040413,,*02
$GPGGA,062354.000,4116.4870,N,00159.2524,E,1,05,4.4,58.0,M,0.0,M,0.0,0000*79
$GPGSA,M,3,01,11,17,20,32,,,,,,,,5.1,4.4,2.5*39
$GPGSV,2,1,05,01,64,103,54,11,43,136,49,17,39,299,46,20,76,333,47*7e
$GPGSV,2,2,05,32,57,047,50*49
$GPRMC,062354.000,A,4116.4875,N,00159.2525,E,0.00,0.00,040413,,*06
$GPGGA,062354.000,4116.4875,N,00159.2525,E,1,05,4.4,59.6,M,0.0,M,0.0,0000*7a
$GPGSA,M,3,01,11,17,20,32,,,,,,,,5.1,4.4,2.5*39
$GPGSV,2,1,05,01,64,103,50,11,43,136,47,17,39,299,48,20,76,333,45*78
$GPGSV,2,2,05,32,57,047,48*40
$GPRMC,062354.000,A,4116.4868,N,00159.2523,E,0.00,0.00,040413,,*0c
$GPGGA,062354.000,4116.4868,N,00159.2523,E,1,05,4.4,57.8,M,0.0,M,0.0,0000*70
$GPGSA,M,3,01,11,17,20,32,,,,,,,,5.1,4.4,2.5*39
$GPGSV,2,1,05,01,64,103,49,11,43,136,47,17,39,299,48,20,76,333,46*73
$GPGSV,2,2,05,32,57,047,51*48
$GPRMC,062354.000,A,4116.4863,N,00159.2520,E,0.00,0.00,040413,,*04
$GPGGA,062354.000,4116.4863,N,00159.2520,E,1,05,4.4,58.1,M,0.0,M,0.0,0000*7e
$GPGSA,M,3,01,11,17,20,32,,,,,,,,5.1,4.4,2.5*39
$GPGSV,2,1,05,01,64,103,51,11,43,136,47,17,39,299,48,20,76,333,48*74
$GPGSV,2,2,05,32,57,047,48*40
$GPRMC,062355.000,A,4116.4868,N,00159.2518,E,0.00,0.00,040413,,*05
$GPGGA,062355.000,4116.4868,N,00159.2518,E,1,05,4.4,60.4,M,0.0,M,0.0,0000*71
$GPGSA,M,3,01,11,17,20,32,,,,,,,,5.1,4.4,2.5*39
$GPGSV,2,1,05,01,64,103,52,11,43,136,47,17,39,299,49,20,76,333,45*7b
$GPGSV,2,2,05,32,57,047,48*40
$GPRMC,062355.000,A,4116.4864,N,00159.2521,E,0.00,0.00,040413,,*03
$GPGGA,062355.000,4116.4864,N,00159.2521,E,1,05,4.4,58.8,M,0.0,M,0.0,0000*70
$GPGSA,M,3,01,11,17,20,32,,,,,,,,5.1,4.4,2.5*39
$GPGSV,2,1,05,01,64,103,53,11,43,136,48,17,39,299,48,20,76,333,47*76
$GPGSV,2,2,05,32,57,047,51*48
$GPRMC,062355.000,A,4116.4871,N,00159.2523,E,0.00,0.00,040413,,*05
$GPGGA,062355.000,4116.4871,N,00159.2523,E,1,05,4.4,56.6,M,0.0,M,0.0,0000*76
$GPGSA,M,3,01,11,17,20,32,,,,,,,,5.1,4.4,2.5*39
$GPGSV,2,1,05,01,64,103,51,11,43,136,49,17,39,299,48,20,76,333,47*75
$GPGSV,2,2,05,32,57,047,50*49
$GPRMC,062355.000,A,4116.4872,N,00159.2521,E,0.00,0.00,040413,,*04
$GPGGA,062355.000,4116.4872,N,00159.2521,E,1,05,4.4,55.8,M,0.0,M,0.0,0000*7a
$GPGSA,M,3,01,11,17,20,32,,,,,,,,5.1,4.4,2.5*39
$GPGSV,2,1,05,01,64,103,51,11,43,136,49,17,39,299,48,20,76,333,48*7a
$GPGSV,2,2,05,32,57,047,49*41
$GPRMC,062355.000,A,4116.4875,N,00159.2523,E,0.00,0.00,040413,,*01
$GPGGA,062355.000,4116.4875,N,00159.2523,E,1,05,4.4,53.5,M,0.0,M,0.0,0000*74
$GPGSA,M,3,01,11,17,20,32,,,,,,,,5.1,4.4,2.5*39
$GPGSV,2,1,05,01,64,103,53,11,43,136,50,17,39,299,47,20,76,333,46*71
$GPGSV,2,2,05,32,57,047,50*49
$GPRMC,062355.000,A,4116.4874,N,00159.2519,E,0.00,0.00,040413,,*09
$GPGGA,062355.000,4116.4874,N,00159.2519,E,1,05,4.4,54.6,M,0.0,M,0.0,0000*78
$GPGSA,M,3,01,11,17,20,32,,,,,,,,5.1,4.4,2.5*39
$GPGSV,2,1,05,01,64,103,50,11,43,136,49,17,39,299,48,20,76,333,46*75
$GPGSV,2,2,05,32,57,047,50*49
$GPRMC,062355.000,A,4116.4873,N,00159.2520,E,0.00,0.00,040413,,*04
$GPGGA,062355.000,4116.4873,N,00159.2520,E,1,05,4.4,56.7,M,0.0,M,0.0,0000*76
$GPGSA,M,3,01,11,17,20,32,,,,,,,,5.1,4.4,2.5*39
$GPGSV,2,1,05,01,64,103,50,11,43,136,49,17,39,299,45,20,76,333,49*77
$GPGSV,2,2,05,32,57,047,49*41
$GPRMC,062355.000,A,4116.4872,N,00159.2516,E,0.00,0.00,040413,,*00
$GPGGA,062355.000,4116.4872,N,00159.2516,E,1,05,4.4,54.7,M,0.0,M,0.0,0000*70
$GPGSA,M,3,01,11,17,20,32,,,,,,,,5.1,4.4,2.5*39
$GPGSV,2,1,05,01,64,103,48,11,43,136,47,17,39,299,47,20,76,333,46*7d
$GPGSV,2,2,05,32,57,047,48*40
$GPRMC,062355.000,A,4116.4876,N,00159.2511,E,0.00,0.00,040413,,*03
$GPGGA,062355.000,4116.4876,N,00159.2511,E,1,05,4.4,56.5,M,0.0,M,0.0,0000*73
$GPGSA,M,3,01,11,17,20,32,,,,,,,,5.1,4.4,2.5*39
$GPGSV,2,1,05,01,64,103,50,11,43,136,46,17,39,299,47,20,76,333,46*75
$GPGSV,2,2,05,32,57,047,49*41
$GPRMC,062355.000,A,4116.4872,N,00159.2510,E,0.00,0.00,040413,,*06
$GPGGA,062355.000,4116.4872,N,00159.2510,E,1,05,4.4,54.8,M,0.0,M,0.0,0000*79
$GPGSA,M,3,01,11,17,20,32,,,,,,,,5.1,4.4,2.5*39
$GPGSV,2,1,05,01,64,103,51,11,43,136,48,17,39,299,47,20,76,333,46*7a
$GPGSV,2,2,05,32,57,047,51*48
$GPRMC,062356.000,A,4116.4864,N,00159.2506,E,0.00,0.00,040413,,*05
$GPGGA,062356.000,4116.4864,N,00159.2506,E,1,05,4.4,55.9,M,0.0,M,0.0,0000*7a
$GPGSA,M,3,01,11,17,20,32,,,,,,,,5.1,4.4,2.5*39
$GPGSV,2,1,05,01,64,103,49,11,43,136,48,17,39,299,48,20,76,333,45*7f
$GPGSV,2,2,05,32,57,047,47*4f
$GPRMC,062356.000,A,4116.4875,N,00159.2510,E,0.00,0.00,040413,,*02
$GPGGA,062356.000,4116.4875,N,00159.2510,E,1,05,4.4,55.8,M,0.0,M,0.0,0000*7c
$GPGSA,M,3,01,11,17,20,32,,,,,,,,5.1,4.4,2.5*39
$GPGSV,2,1,05,01,64,103,50,11,43,136,49,17,39,299,47,20,76,333,45*79
$GPGSV,2,2,05,32,57,047,49*41
$GPRMC,062356.000,A,4116.4869,N,00159.2509,E,0.00,0.00,040413,,*07
$GPGGA,062356.000,4116.4869,N,00159.2509,E,1,05,4.4,54.8,M,0.0,M,0.0,0000*78
$GPGSA,M,3,01,11,17,20,32,,,,,,,,5.1,4.4,2.5*39
$GPGSV,2,1,05,01,64,103,52,11,43,136,50,17,39,299,48,20,76,333,44*7d
$GPGSV,2,2,05,32,57,047,50*49
$GPRMC,062356.000,A,4116.4873,N,00159.2509,E,0.00,0.00,040413,,*0c
$GPGGA,062356.000,4116.4873,N,00159.2509,E,1,05,4.4,54.2,M,0.0,M,0.0,0000*79
$GPGSA,M,3,01,11,17,20,32,,,,,,,,5.1,4.4,2.5*39
$GPGSV,2,1,05,01,64,103,49,11,43,136,50,17,39,299,48,20,76,333,46*75
$GPGSV,2,2,05,32,57,047,50*49
$GPRMC,062356.000,A,4116.4873,N,00159.2511,E,0.00,0.00,040413,,*05
$GPGGA,062356.000,4116.4873,N,00159.2511,E,1,05,4.4,55.7,M,0.0,M,0.0,0000*74
$GPGSA,M,3,01,11,17,20,32,,,,,,,,5.1,4.4,2.5*39
$GPGSV,2,1,05,01,64,103,50,11,43,136,47,17,39,299,47,20,76,333,44*76
$GPGSV,2,2,05,32,57,047,48*40
$GPRMC,062356.000,A,4116.4880,N,00159.2520,E,0.00,0.00,040413,,*0b
$GPGGA,062356.000,4116.4880,N,00159.2520,E,1,05,4.4,49.5,M,0.0,M,0.0,0000*75
$GPGSA,M,3,01,11,17,20,32,,,,,,,,5.1,4.4,2.5*39
$GPGSV,2,1,05,01,64,103,50,11,43,136,49,17,39,299,46,20,76,333,45*78
$GPGSV,2,2,05,32,57,047,49*41
$GPRMC,062356.000,A,4116.4883,N,00159.2524,E,0.00,0.00,040413,,*0c
$GPGGA,062356.000,4116.4883,N,00159.2524,E,1,05,4.4,46.0,M,0.0,M,0.0,0000*78
$GPGSA,M,3,01,11,17,20,32,,,,,,,,5.1,4.4,2.5*39
$GPGSV,2,1,05,01,64,103,48,11,43,136,50,17,39,299,48,20,76,333,43*71
$GPGSV,2,2,05,32,57,047,48*40
$GPRMC,062356.000,A,4116.4884,N,00159.2524,E,0.00,0.00,040413,,*0b
$GPGGA,062356.000,4116.4884,N,00159.2524,E,1,05,4.4,48.1,M,0.0,M,0.0,0000*70
$GPGSA,M,3,01,11,17,20,32,,,,,,,,5.1,4.4,2.5*39
$GPGSV,2,1,05,01,64,103,49,11,43,136,48,17,39,299,49,20,76,333,48*73
$GPGSV,2,2,05,32,57,047,48*40
$GPRMC,062356.000,A,4116.4878,N,00159.2524,E,0.00,0.00,040413,,*08
$GPGGA,062356.000,4116.4878,N,00159.2524,E,1,05,4.4,51.2,M,0.0,M,0.0,0000*78
$GPGSA,M,3,01,11,17,20,32,,,,,,,,5.1,4.4,2.5*39
$GPGSV,2,1,05,01,64,103,51,11,43,136,48,17,39,299,49,20,76,333,45*77
$GPGSV,2,2,05,32,57,047,48*40
$GPRMC,062356.000,A,4116.4894,N,00159.2531,E,0.00,0.00,040413,,*0e
$GPGGA,062356.000,4116.4894,N,00159.2531,E,1,05,4.4,53.6,M,0.0,M,0.0,0000*78
$GPGSA,M,3,01,11,17,20,32,,,,,,,,5.1,4.4,2.5*39
$GPGSV,2,1,05,01,64,103,51,11,43,136,47,17,39,299,49,20,76,333,47*7a
$GPGSV,2,2,05,32,57,047,49*41
$GPRMC,062357.000,A,4116.4892,N,00159.2533,E,0.00,0.00,040413,,*0b
$GPGGA,062357.000,4116.4892,N,00159.2533,E,1,05,4.4,52.7,M,0.0,M,0.0,0000*7d
$GPGSA,M,3,01,11,17,20,32,,,,,,,,5.1,4.4,2.5*39
$GPGSV,2,1,05,01,64,103,48,11,43,136,45,17,39,299,51,20,76,333,50*7f
$GPGSV,2,2,05,32,57,047,49*41
$GPRMC,062357.000,A,4116.4892,N,00159.2530,E,0.00,0.00,040413,,*08
$GPGGA,062357.000,4116.4892,N,00159.2530,E,1,05,4.4,52.9,M,0.0,M,0.0,0000*70
$GPGSA,M,3,01,11,17,20,32,,,,,,,,5.1,4.4,2.5*39
$GPGSV,2,1,05,01,64,103,50,11,43,136,50,17,39,299,48,20,76,333,47*7c
$GPGSV,2,2,05,32,57,047,49*41
$GPRMC,062357.000,A,4116.4902,N,00159.2534,E,0.00,0.00,040413,,*04
$GPGGA,062357.000,4116.4902,N,00159.2534,E,1,05,4.4,53.2,M,0.0,M,0.0,0000*76
$GPGSA,M,3,01,11,17,20,32,,,,,,,,5.1,4.4,2.5*39
$GPGSV,2,1,05,01,64,103,47,11,43,136,50,17,39,299,46,20,76,333,46*75
$GPGSV,2,2,05,32,57,047,45*4d
$GPRMC,062357.000,A,4116.4895,N,00159.2534,E,0.00,0.00,040413,,*0b
$GPGGA,062357.000,4116.4895,N,00159.2534,E,1,05,4.4,53.4,M,0.0,M,0.0,0000*7f
$GPGSA,M,3,01,11,17,20,32,,,,,,,,5.1,4.4,2.5*39
$GPGSV,2,1,05,01,64,103,50,11,43,136,48,17,39,299,50,20,76,333,47*7c
$GPGSV,2,2,05,32,57,047,49*41
$GPRMC,062357.000,A,4116.4904,N,00159.2542,E,0.00,0.00,040413,,*03
$GPGGA,062357.000,4116.4904,N,00159.2542,E,1,05,4.4,52.3,M,0.0,M,0.0,0000*71
$GPGSA,M,3,01,11,17,20,32,,,,,,,,5.1,4.4,2.5*39
$GPGSV,2,1,05,01,64,103,52,11,43,136,49,17,39,299,47,20,76,333,48*76
$GPGSV,2,2,05,32,57,047,48*40
$GPRMC,062357.000,A,4116.4902,N,00159.2542,E,0.00,0.00,040413,,*05
$GPGGA,062357.000,4116.4902,N,00159.2542,E,1,05,4.4,55.7,M,0.0,M,0.0,0000*74
$GPGSA,M,3,01,11,17,20,32,,,,,,,,5.1,4.4,2.5*39
$GPGSV,2,1,05,01,64,103,49,11,43,136,49,17,39,299,48,20,76,333,48*73
$GPGSV,2,2,05,32,57,047,46*4e
$GPRMC,062357.000,A,4116.4904,N,00159.2546,E,0.00,0.00,040413,,*07
$GPGGA,062357.000,4116.4904,N,00159.2546,E,1,05,4.4,53.9,M,0.0,M,0.0,0000*7e
$GPGSA,M,3,01,11,17,20,32,,,,,,,,5.1,4.4,2.5*39
$GPGSV,2,1,05,01,64,103,51,11,43,136,46,17,39,299,47,20,76,333,47*75
$GPGSV,2,2,05,32,57,047,49*41
$GPRMC,062357.000,A,4116.4905,N,00159.2549,E,0.00,0.00,040413,,*09
$GPGGA,062357.000,4116.4905,N,00159.2549,E,1,05,4.4,53.6,M,0.0,M,0.0,0000*7f
$GPGSA,M,3,01,11,17,20,32,,,,,,,,5.1,4.4,2.5*39
$GPGSV,2,1,05,01,64,103,52,11,43,136,47,17,39,299,48,20,76,333,46*79
$GPGSV,2,2,05,32,57,047,46*4e
$GPRMC,062357.000,A,4116.4906,N,00159.2546,E,0.00,0.00,040413,,*05
$GPGGA,062357.000,4116.4906,N,00159.2546,E,1,05,4.4,52.5,M,0.0,M,0.0,0000*71
$GPGSA,M,3,01,11,17,20,32,,,,,,,,5.1,4.4,2.5*39
$GPGSV,2,1,05,01,64,103,53,11,43,136,46,17,39,299,49,20,76,333,47*79
$GPGSV,2,2,05,32,57,047,48*40
$GPRMC,062357.000,A,4116.4891,N,00159.2539,E,0.00,0.00,040413,,*02
$GPGGA,062357.000,4116.4891,N,00159.2539,E,1,05,4.4,52.4,M,0.0,M,0.0,0000*77
$GPGSA,M,3,01,11,17,20,32,,,,,,,,5.1,4.4,2.5*39
$GPGSV,2,1,05,01,64,103,49,11,43,136,47,17,39,299,47,20,76,333,48*72
$GPGSV,2,2,05,32,57,047,49*41
$GPRMC,062358.000,A,4116.4894,N,00159.2533,E,0.00,0.00,040413,,*02
$GPGGA,062358.000,4116.4894,N,00159.2533,E,1,05,4.4,55.5,M,0.0,M,0.0,0000*71
$GPGSA,M,3,01,11,17,20,32,,,,,,,,5.1,4.4,2.5*39
$GPGSV,2,1,05,01,64,103,52,11,43,136,47,17,39,299,46,20,76,333,50*70
$GPGSV,2,2,05,32,57,047,47*4f
$GPRMC,062358.000,A,4116.4889,N,00159.2534,E,0.00,0.00,040413,,*09
$GPGGA,062358.000,4116.4889,N,00159.2534,E,1,05,4.4,58.4,M,0.0,M,0.0,0000*76
$GPGSA,M,3,01,11,17,20,32,,,,,,,,5.1,4.4,2.5*39
$GPGSV,2,1,05,01,64,103,51,11,43,136,47,17,39,299,48,20,76,333,48*74
$GPGSV,2,2,05,32,57,047,49*41
$GPRMC,062358.000,A,4116.4881,N,00159.2528,E,0.00,0.00,040413,,*0c
$GPGGA,062358.000,4116.4881,N,00159.2528,E,1,05,4.4,60.0,M,0.0,M,0.0,0000*7c
$GPGSA,M,3,01,11,17,20,32,,,,,,,,5.1,4.4,2.5*39
$GPGSV,2,1,05,01,64,103,48,11,43,136,47,17,39,299,49,20,76,333,47*72
$GPGSV,2,2,05,32,57,047,47*4f
$GPRMC,062358.000,A,4116.4888,N,00159.2531,E,0.00,0.00,040413,,*0d
$GPGGA,062358.000,4116.4888,N,00159.2531,E,1,05,4.4,60.6,M,0.0,M,0.0,0000*7b
$GPGSA,M,3,01,11,17,20,32,,,,,,,,5.1,4.4,2.5*39
$GPGSV,2,1,05,01,64,103,49,11,43,136,44,17,39,299,48,20,76,333,49*7f
$GPGSV,2,2,05,32,57,047,47*4f
$GPRMC,062358.000,A,4116.4878,N,00159.2524,E,0.00,0.00,040413,,*06
$GPGGA,062358.000,4116.4878,N,00159.2524,E,1,05,4.4,59.7,M,0.0,M,0.0,0000*7b
$GPGSA,M,3,01,11,17,20,32,,,,,,,,5.1,4.4,2.5*39
$GPGSV,2,1,05,01,64,103,48,11,43,136,43,17,39,299,49,20,76,333,45*74
$GPGSV,2,2,05,32,57,047,44*4c
$GPRMC,062358.000,A,4116.4882,N,00159.2524,E,0.00,0.00,040413,,*03
$GPGGA,062358.000,4116.4882,N,00159.2524,E,1,05,4.4,57.9,M,0.0,M,0.0,0000*7e
$GPGSA,M,3,01,11,17,20,32,,,,,,,,5.1,4.4,2.5*39
$GPGSV,2,1,05,01,64,103,48,11,43,136,47,17,39,299,44,20,76,333,46*7e
$GPGSV,2,2,05,32,57,047,44*4c
$GPRMC,062358.000,A,4116.4883,N,00159.2524,E,0.00,0.00,040413,,*02
$GPGGA,062358.000,4116.4883,N,00159.2524,E,1,05,4.4,60.0,M,0.0,M,0.0,0000*72
$GPGSA,M,3,01,11,17,20,32,,,,,,,,5.1,4.4,2.5*39
$GPGSV,2,1,05,01,64,103,50,11,43,136,44,17,39,299,48,20,76,333,47*79
$GPGSV,2,2,05,32,57,047,47*4f
$GPRMC,062358.000,A,4116.4881,N,00159.2530,E,0.00,0.00,040413,,*05
$GPGGA,062358.000,4116.4881,N,00159.2530,E,1,05,4.4,56.5,M,0.0,M,0.0,0000*75
$GPGSA,M,3,01,11,17,20,32,,,,,,,,5.1,4.4,2.5*39
$GPGSV,2,1,05,01,64,103,49,11,43,136,46,17,39,299,48,20,76,333,43*77
$GPGSV,2,2,05,32,57,047,46*4e
$GPRMC,062358.000,A,4116.4882,N,00159.2530,E,0.00,0.00,040413,,*06
$GPGGA,062358.000,4116.4882,N,00159.2530,E,1,05,4.4,58.1,M,0.0,M,0.0,0000*7c
$GPGSA,M,3,01,11,17,20,32,,,,,,,,5.1,4.4,2.5*39
$GPGSV,2,1,05,01,64,103,49,11,43,136,47,17,39,299,49,20,76,333,44*70
$GPGSV,2,2,05,32,57,047,46*4e
$GPRMC,062358.000,A,4116.4890,N,00159.2528,E,0.00,0.00,040413,,*0c
$GPGGA,062358.000,4116.4890,N,00159.2528,E,1,05,4.4,60.6,M,0.0,M,0.0,0000*7a
$GPGSA,M,3,01,11,17,20,32,,,,,,,,5.1,4.4,2.5*39
$GPGSV,2,1,05,01,64,103,49,11,43,136,46,17,39,299,46,20,76,333,45*7f
$GPGSV,2,2,05,32,57,047,48*40
$GPRMC,062359.000,A,4116.4888,N,00159.2534,E,0.00,0.00,040413,,*09
$GPGGA,062359.000,4116.4888,N,00159.2534,E,1,05,4.4,58.3,M,0.0,M,0.0,0000*71
$GPGSA,M,3,01,11,17,20,32,,,,,,,,5.1,4.4,2.5*39
$GPGSV,2,1,05,01,64,103,52,11,43,136,45,17,39,299,48,20,76,333,47*7a
$GPGSV,2,2,05,32,57,047,48*40
$GPRMC,062359.000,A,4116.4886,N,00159.2526,E,0.00,0.00,040413,,*04
$GPGGA,062359.000,4116.4886,N,00159.2526,E,1,05,4.4,59.5,M,0.0,M,0.0,0000*7b
$GPGSA,M,3,01,11,17,20,32,,,,,,,,5.1,4.4,2.5*39
$GPGSV,2,1,05,01,64,103,50,11,43,136,47,17,39,299,48,20,76,333,48*75
$GPGSV,2,2,05,32,57,047,48*40
$GPRMC,062359.000,A,4116.4891,N,00159.2524,E,0.00,0.00,040413,,*00
$GPGGA,062359.000,4116.4891,N,00159.2524,E,1,05,4.4,61.5,M,0.0,M,0.0,0000*74
$GPGSA,M,3,01,11,17,20,32,,,,,,,,5.1,4.4,2.5*39
$GPGSV,2,1,05,01,64,103,50,11,43,136,47,17,39,299,49,20,76,333,46*7a
$GPGSV,2,2,05,32,57,047,51*48
$GPRMC,062359.000,A,4116.4880,N,00159.2518,E,0.00,0.00,040413,,*0f
$GPGGA,062359.000,4116.4880,N,00159.2518,E,1,05,4.4,62.7,M,0.0,M,0.0,0000*7a
$GPGSA,M,3,01,11,17,20,32,,,,,,,,5.1,4.4,2.5*39
$GPGSV,2,1,05,01,64,103,50,11,43,136,50,17,39,299,46,20,76,333,47*72
$GPGSV,2,2,05,32,57,047,48*40
$GPRMC,062359.000,A,4116.4888,N,00159.2525,E,0.00,0.00,040413,,*09
$GPGGA,062359.000,4116.4888,N,00159.2525,E,1,05,4.4,66.0,M,0.0,M,0.0,0000*7f
$GPGSA,M,3,01,11,17,20,32,,,,,,,,5.1,4.4,2.5*39
$GPGSV,2,1,05,01,64,103,47,11,43,136,50,17,39,299,47,20,76,333,46*74
$GPGSV,2,2,05,32,57,047,49*41
$GPRMC,062359.000,A,4116.4883,N,00159.2524,E,0.00,0.00,040413,,*03
$GPGGA,062359.000,4116.4883,N,00159.2524,E,1,05,4.4,65.7,M,0.0,M,0.0,0000*71
$GPGSA,M,3,01,11,17,20,32,,,,,,,,5.1,4.4,2.5*39
$GPGSV,2,1,05,01,64,103,52,11,43,136,47,17,39,299,47,20,76,333,47*77
$GPGSV,2,2,05,32,57,047,50*49
$GPRMC,062359.000,A,4116.4883,N,00159.2520,E,0.00,0.00,040413,,*07
$GPGGA,062359.000,4116.4883,N,00159.2520,E,1,05,4.4,65.0,M,0.0,M,0.0,0000*72
$GPGSA,M,3,01,11,17,20,32,,,,,,,,5.1,4.4,2.5*39
$GPGSV,2,1,05,01,64,103,47,11,43,136,46,17,39,299,46,20,76,333,46*72
$GPGSV,2,2,05,32,57,047,49*41
$GPRMC,062359.000,A,4116.4891,N,00159.2519,E,0.00,0.00,040413,,*0e
$GPGGA,062359.000,4116.4891,N,00159.2519,E,1,05,4.4,66.4,M,0.0,M,0.0,0000*7c
$GPGSA,M,3,01,11,17,20,32,,,,,,,,5.1,4.4,2.5*39
$GPGSV,2,1,05,01,64,103,50,11,43,136,47,17,39,299,49,20,76,333,48*74
$GPGSV,2,2,05,32,57,047,49*41
$GPRMC,062359.000,A,4116.4888,N,00159.2522,E,0.00,0.00,040413,,*0e
$GPGGA,062359.000,4116.4888,N,00159.2522,E,1,05,4.4,65.1,M,0.0,M,0.0,0000*7a
$GPGSA,M,3,01,11,17,20,32,,,,,,,,5.1,4.4,2.5*39
$GPGSV,2,1,05,01,64,103,51,11,43,136,47,17,39,299,49,20,76,333,48*75
$GPGSV,2,2,05,32,57,047,49*41
$GPRMC,062359.000,A,4116.4893,N,00159.2534,E,0.00,0.00,040413,,*03
$GPGGA,062359.000,4116.4893,N,00159.2534,E,1,05,4.4,61.4,M,0.0,M,0.0,0000*76
$GPGSA,M,3,01,11,17,20,32,,,,,,,,5.1,4.4,2.5*39
$GPGSV,2,1,05,01,64,103,52,11,43,136,50,17,39,299,49,20,76,333,51*78
$GPGSV,2,2,05,32,57,047,48*40
$GPRMC,062400.000,A,4116.4906,N,00159.2539,E,0.00,0.00,040413,,*08
$GPGGA,062400.000,4116.4906,N,00159.2539,E,1,05,4.4,59.7,M,0.0,M,0.0,0000*75
$GPGSA,M,3,01,11,17,20,32,,,,,,,,5.1,4.4,2.5*39
$GPGSV,2,1,05,01,64,103,52,11,43,136,48,17,39,299,47,20,76,333,46*79
$GPGSV,2,2,05,32,57,047,49*41
$GPRMC,062400.000,A,4116.4905,N,00159.2543,E,0.00,0.00,040413,,*06
$GPGGA,062400.000,4116.4905,N,00159.2543,E,1,05,4.4,58.2,M,0.0,M,0.0,0000*7f
$GPGSA,M,3,01,11,17,20,32,,,,,,,,5.1,4.4,2.5*39
$GPGSV,2,1,05,01,64,103,51,11,43,136,51,17,39,299,45,20,76,333,48*7e
$GPGSV,2,2,05,32,57,047,47*4f
$GPRMC,062400.000,A,4116.4908,N,00159.2545,E,0.00,0.00,040413,,*0d
$GPGGA,062400.000,4116.4908,N,00159.2545,E,1,05,4.4,58.3,M,0.0,M,0.0,0000*75
$GPGSA,M,3,01,11,17,20,32,,,,,,,,5.1,4.4,2.5*39
$GPGSV,2,1,05,01,64,103,50,11,43,136,49,17,39,299,48,20,76,333,49*7a
$GPGSV,2,2,05,32,57,047,48*40
$GPRMC,062400.000,A,4116.4904,N,00159.2542,E,0.00,0.00,040413,,*06
$GPGGA,062400.000,4116.4904,N,00159.2542,E,1,05,4.4,62.1,M,0.0,M,0.0,0000*75
$GPGSA,M,3,01,11,17,20,32,,,,,,,,5.1,4.4,2.5*39
$GPGSV,2,1,05,01,64,103,50,11,43,136,49,17,39,299,49,20,76,333,48*7a
$GPGSV,2,2,05,32,57,047,47*4f
$GPRMC,062400.000,A,4116.4908,N,00159.2548,E,0.00,0.00,040413,,*00
$GPGGA,062400.000,4116.4908,N,00159.2548,E,1,05,4.4,58.6,M,0.0,M,0.0,0000*7d
$GPGSA,M,3,01,11,17,20,32,,,,,,,,5.1,4.4,2.5*39
$GPGSV,2,1,05,01,64,103,50,11,43,136,49,17,39,299,48,20,76,333,46*75
$GPGSV,2,2,05,32,57,047,47*4f
$GPRMC,062400.000,A,4116.4910,N,00159.2546,E,0.00,0.00,040413,,*07
$GPGGA,062400.000,4116.4910,N,00159.2546,E,1,05,4.4,60.7,M,0.0,M,0.0,0000*70
$GPGSA,M,3,01,11,17,20,32,,,,,,,,5.1,4.4,2.5*39
$GPGSV,2,1,05,01,64,103,50,11,43,136,46,17,39,299,48,20,76,333,49*75
$GPGSV,2,2,05,32,57,047,48*40
$GPRMC,062400.000,A,4116.4906,N,00159.2543,E,0.00,0.00,040413,,*05
$GPGGA,062400.000,4116.4906,N,00159.2543,E,1,05,4.4,61.0,M,0.0,M,0.0,0000*74
$GPGSA,M,3,01,11,17,20,32,,,,,,,,5.1,4.4,2.5*39
$GPGSV,2,1,05,01,64,103,48,11,43,136,47,17,39,299,48,20,76,333,49*7d
$GPGSV,2,2,05,32,57,047,50*49
$GPRMC,062400.000,A,4116.4908,N,00159.2550,E,0.00,0.00,040413,,*09
$GPGGA,062400.000,4116.4908,N,00159.2550,E,1,05,4.4,61.6,M,0.0,M,0.0,0000*7e
$GPGSA,M,3,01,11,17,20,32,,,,,,,,5.1,4.4,2.5*39
$GPGSV,2,1,05,01,64,103,50,11,43,136,48,17,39,299,45,20,76,333,48*77
$GPGSV,2,2,05,32,57,047,50*49
$GPRMC,062400.000,A,4116.4909,N,00159.2547,E,0.00,0.00,040413,,*0e
$GPGGA,062400.000,4116.4909,N,00159.2547,E,1,05,4.4,62.7,M,0.0,M,0.0,0000*7b
$GPGSA,M,3,01,11,17,20,32,,,,,,,,5.1,4.4,2.5*39
$GPGSV,2,1,05,01,64,103,49,11,43,136,51,17,39,299,50,20,76,333,48*73
$GPGSV,2,2,05,32,57,047,49*41
$GPRMC,062400.000,A,4116.4908,N,00159.2549,E,0.00,0.00,040413,,*01
$GPGGA,062400.000,4116.4908,N,00159.2549,E,1,05,4.4,59.7,M,0.0,M,0.0,0000*7c
$GPGSA,M,3,01,11,17,20,32,,,,,,,,5.1,4.4,2.5*39
$GPGSV,2,1,05,01,64,103,52,11,43,136,50,17,39,299,49,20,76,333,48*70
$GPGSV,2,2,05,32,57,047,48*40
$GPRMC,062401.000,A,4116.4901,N,00159.2545,E,0.00,0.00,040413,,*05
$GPGGA,062401.000,4116.4901,N,00159.2545,E,1,05,4.4,60.2,M,0.0,M,0.0,0000*77
$GPGSA,M,3,01,11,17,20,32,,,,,,,,5.1,4.4,2.5*39
$GPGSV,2,1,05,01,64,103,50,11,43,136,47,17,39,299,49,20,76,333,48*74
$GPGSV,2,2,05,32,57,047,48*40
$GPRMC,062401.000,A,4116.4901,N,00159.2543,E,0.00,0.00,040413,,*03
$GPGGA,062401.000,4116.4901,N,00159.2543,E,1,05,4.4,62.5,M,0.0,M,0.0,0000*74
$GPGSA,M,3,01,11,17,20,32,,,,,,,,5.1,4.4,2.5*39
$GPGSV,2,1,05,01,64,103,50,11,43,136,49,17,39,299,48,20,76,333,47*74
$GPGSV,2,2,05,32,57,047,47*4f
$GPRMC,062401.000,A,4116.4893,N,00159.2546,E,0.00,0.00,040413,,*0c
$GPGGA,062401.000,4116.4893,N,00159.2546,E,1,05,4.4,59.9,M,0.0,M,0.0,0000*7f
$GPGSA,M,3,01,11,17,20,32,,,,,,,,5.1,4.4,2.5*39
$GPGSV,2,1,05,01,64,103,51,11,43,136,46,17,39,299,48,20,76,333,47*7a
$GPGSV,2,2,05,32,57,047,46*4e
$GPRMC,062401.000,A,4116.4895,N,00159.2544,E,0.00,0.00,040413,,*08
$GPGGA,062401.000,4116.4895,N,00159.2544,E,1,05,4.4,59.7,M,0.0,M,0.0,0000*75
$GPGSA,M,3,01,11,17,20,32,,,,,,,,5.1,4.4,2.5*39
$GPGSV,2,1,05,01,64,103,50,11,43,136,49,17,39,299,47,20,76,333,46*7a
$GPGSV,2,2,05,32,57,047,49*41
$GPRMC,062401.000,A,4116.4895,N,00159.2535,E,0.00,0.00,040413,,*0e
$GPGGA,062401.000,4116.4895,N,00159.2535,E,1,05,4.4,62.6,M,0.0,M,0.0,0000*7a
$GPGSA,M,3,01,11,17,20,32,,,,,,,,5.1,4.4,2.5*39
$GPGSV,2,1,05,01,64,103,50,11,43,136,48,17,39,299,48,20,76,333,49*7b
$GPGSV,2,2,05,32,57,047,49*41
$GPRMC,062401.000,A,4116.4891,N,00159.2539,E,0.00,0.00,040413,,*06
$GPGGA,062401.000,4116.4891,N,00159.2539,E,1,05,4.4,63.2,M,0.0,M,0.0,0000*77
$GPGSA,M,3,01,11,17,20,32,,,,,,,,5.1,4.4,2.5*39
$GPGSV,2,1,05,01,64,103,51,11,43,136,50,17,39,299,49,20,76,333,49*72
$GPGSV,2,2,05,32,57,047,48*40
$GPRMC,062401.000,A,4116.4895,N,00159.2540,E,0.00,0.00,040413,,*0c
$GPGGA,062401.000,4116.4895,N,00159.2540,E,1,05,4.4,64.3,M,0.0,M,0.0,0000*7b
$GPGSA,M,3,01,11,17,20,32,,,,,,,,5.1,4.4,2.5*39
$GPGSV,2,1,05,01,64,103,52,11,43,136,49,17,39,299,49,20,76,333,48*78
$GPGSV,2,2,05,32,57,047,48*40
$GPRMC,062401.000,A,4116.4891,N,00159.2538,E,0.00,0.00,040413,,*07
$GPGGA,062401.000,4116.4891,N,00159.2538,E,1,05,4.4,64.5,M,0.0,M,0.0,0000*76
$GPGSA,M,3,01,11,17,20,32,,,,,,,,5.1,4.4,2.5*39
$GPGSV,2,1,05,01,64,103,51,11,43,136,50,17,39,299,49,20,76,333,47*7c
$GPGSV,2,2,05,32,57,047,49*41
$GPRMC,062401.000,A,4116.4892,N,00159.2542,E,0.00,0.00,040413,,*09
$GPGGA,062401.000,4116.4892,N,00159.2542,E,1,05,4.4,61.4,M,0.0,M,0.0,0000*7c
$GPGSA,M,3,01,11,17,20,32,,,,,,,,5.1,4.4,2.5*39
$GPGSV,2,1,05,01,64,103,51,11,43,136,49,17,39,299,47,20,76,333,48*75
$GPGSV,2,2,05,32,57,047,48*40
$GPRMC,062401.000,A,4116.4894,N,00159.2537,E,0.00,0.00,040413,,*0d
$GPGGA,062401.000,4116.4894,N,00159.2537,E,1,05,4.4,64.4,M,0.0,M,0.0,0000*7d
$GPGSA,M,3,01,11,17,20,32,,,,,,,,5.1,4.4,2.5*39
$GPGSV,2,1,05,01,64,103,51,11,43,136,49,17,39,299,46,20,76,333,49*75
$GPGSV,2,2,05,32,57,047,50*49
$GPRMC,062402.000,A,4116.4892,N,00159.2536,E,0.00,0.00,040413,,*09
$GPGGA,062402.000,4116.4892,N,00159.2536,E,1,05,4.4,67.6,M,0.0,M,0.0,0000*78
$GPGSA,M,3,01,11,17,20,32,,,,,,,,5.1,4.4,2.5*39
$GPGSV,2,1,05,01,64,103,50,11,43,136,49,17,39,299,49,20,76,333,48*7a
$GPGSV,2,2,05,32,57,047,50*49
$GPRMC,062402.000,A,4116.4892,N,00159.2537,E,0.00,0.00,040413,,*08
$GPGGA,062402.000,4116.4892,N,00159.2537,E,1,05,4.4,65.7,M,0.0,M,0.0,0000*7a
$GPGSA,M,3,01,11,17,20,32,,,,,,,,5.1,4.4,2.5*39
$GPGSV,2,1,05,01,64,103,49,11,43,136,47,17,39,299,48,20,76,333,46*73
$GPGSV,2,2,05,32,57,047,49*41
$GPRMC,062402.000,A,4116.4904,N,00159.2539,E,0.00,0.00,040413,,*08
$GPGGA,062402.000,4116.4904,N,00159.2539,E,1,05,4.4,65.1,M,0.0,M,0.0,0000*7c
$GPGSA,M,3,01,11,17,20,32,,,,,,,,5.1,4.4,2.5*39
$GPGSV,2,1,05,01,64,103,51,11,43,136,50,17,39,299,47,20,76,333,48*7d
$GPGSV,2,2,05,32,57,047,48*40
$GPRMC,062402.000,A,4116.4904,N,00159.2545,E,0.00,0.00,040413,,*03
$GPGGA,062402.000,4116.4904,N,00159.2545,E,1,05,4.4,61.8,M,0.0,M,0.0,0000*7a
$GPGSA,M,3,01,11,17,20,32,,,,,,,,5.1,4.4,2.5*39
$GPGSV,2,1,05,01,64,103,51,11,43,136,48,17,39,299,46,20,76,333,49*74
$GPGSV,2,2,05,32,57,047,49*41
$GPRMC,062402.000,A,4116.4899,N,00159.2544,E,0.00,0.00,040413,,*07
$GPGGA,062402.000,4116.4899,N,00159.2544,E,1,05,4.4,62.1,M,0.0,M,0.0,0000*74
$GPGSA,M,3,01,11,17,20,32,,,,,,,,5.1,4.4,2.5*39
$GPGSV,2,1,05,01,64,103,50,11,43,136,49,17,39,299,46,20,76,333,46*7b
$GPGSV,2,2,05,32,57,047,48*40
$GPRMC,062402.000,A,4116.4905,N,00159.2541,E,0.00,0.00,040413,,*06
$GPGGA,062402.000,4116.4905,N,00159.2541,E,1,05,4.4,63.9,M,0.0,M,0.0,0000*7c
$GPGSA,M,3,01,11,17,20,32,,,,,,,,5.1,4.4,2.5*39
$GPGSV,2,1,05,01,64,103,49,11,43,136,48,17,39,299,47,20,76,333,45*70
$GPGSV,2,2,05,32,57,047,49*41
$GPRMC,062402.000,A,4116.4896,N,00159.2539,E,0.00,0.00,040413,,*02
$GPGGA,062402.000,4116.4896,N,00159.2539,E,1,05,4.4,61.3,M,0.0,M,0.0,0000*70
$GPGSA,M,3,01,11,17,20,32,,,,,,,,5.1,4.4,2.5*39
$GPGSV,2,1,05,01,64,103,49,11,43,136,47,17,39,299,45,20,76,333,47*7f
$GPGSV,2,2,05,32,57,047,49*41
$GPRMC,062402.000,A,4116.4895,N,00159.2537,E,0.00,0.00,040413,,*0f
$GPGGA,062402.000,4116.4895,N,00159.2537,E,1,05,4.4,60.5,M,0.0,M,0.0,0000*7a
$GPGSA,M,3,01,11,17,20,32,,,,,,,,5.1,4.4,2.5*39
$GPGSV,2,1,05,01,64,103,52,11,43,136,47,17,39,299,48,20,76,333,45*7a
$GPGSV,2,2,05,32,57,047,50*49
$GPRMC,062402.000,A,4116.4897,N,00159.2533,E,0.00,0.00,040413,,*09
$GPGGA,062402.000,4116.4897,N,00159.2533,E,1,05,4.4,64.5,M,0.0,M,0.0,0000*78
$GPGSA,M,3,01,11,17,20,32,,,,,,,,5.1,4.4,2.5*39
$GPGSV,2,1,05,01,64,103,49,11,43,136,50,17,39,299,48,20,76,333,46*75
$GPGSV,2,2,05,32,57,047,48*40
$GPRMC,062402.000,A,4116.4892,N,00159.2537,E,0.00,0.00,040413,,*08
$GPGGA,062402.000,4116.4892,N,00159.2537,E,1,05,4.4,64.7,M,0.0,M,0.0,0000*7b
$GPGSA,M,3,01,11,17,20,32,,,,,,,,5.1,4.4,2.5*39
$GPGSV,2,1,05,01,64,103,51,11,43,136,49,17,39,299,48,20,76,333,48*7a
$GPGSV,2,2,05,32,57,047,47*4f
$GPRMC,062403.000,A,4116.4901,N,00159.2544,E,0.00,0.00,040413,,*06
$GPGGA,062403.000,4116.4901,N,00159.2544,E,1,05,4.4,61.8,M,0.0,M,0.0,0000*7f
$GPGSA,M,3,01,11,17,20,32,,,,,,,,5.1,4.4,2.5*39
$GPGSV,2,1,05,01,64,103,51,11,43,136,51,17,39,299,48,20,76,333,48*73
$GPGSV,2,2,05,32,57,047,46*4e
$GPRMC,062403.000,A,4116.4895,N,00159.2545,E,0.00,0.00,040413,,*0b
$GPGGA,062403.000,4116.4895,N,00159.2545,E,1,05,4.4,63.1,M,0.0,M,0.0,0000*79
$GPGSA,M,3,01,11,17,20,32,,,,,,,,5.1,4.4,2.5*39
$GPGSV,2,1,05,01,64,103,52,11,43,136,49,17,39,299,49,20,76,333,48*78
$GPGSV,2,2,05,32,57,047,51*48
$GPRMC,062403.000,A,4116.4890,N,00159.2548,E,0.00,0.00,040413,,*03
$GPGGA,062403.000,4116.4890,N,00159.2548,E,1,05,4.4,62.7,M,0.0,M,0.0,0000*76
$GPGSA,M,3,01,11,17,20,32,,,,,,,,5.1,4.4,2.5*39
$GPGSV,2,1,05,01,64,103,51,11,43,136,49,17,39,299,48,20,76,333,48*7a
$GPGSV,2,2,05,32,57,047,48*40
$GPRMC,062403.000,A,4116.4895,N,00159.2551,E,0.00,0.00,040413,,*0e
$GPGGA,062403.000,4116.4895,N,00159.2551,E,1,05,4.4,64.2,M,0.0,M,0.0,0000*78
$GPGSA,M,3,01,11,17,20,32,,,,,,,,5.1,4.4,2.5*39
$GPGSV,2,1,05,01,64,103,49,11,43,136,50,17,39,299,47,20,76,333,50*7d
$GPGSV,2,2,05,32,57,047,51*48
$GPRMC,062403.000,A,4116.4893,N,00159.2550,E,0.00,0.00,040413,,*09
$GPGGA,062403.000,4116.4893,N,00159.2550,E,1,05,4.4,63.4,M,0.0,M,0.0,0000*7e
$GPGSA,M,3,01,11,17,20,32,,,,,,,,5.1,4.4,2.5*39
$GPGSV,2,1,05,01,64,103,48,11,43,136,48,17,39,299,47,20,76,333,48*7c
$GPGSV,2,2,05,32,57,047,51*48
$GPRMC,062403.000,A,4116.4892,N,00159.2552,E,0.00,0.00,040413,,*0a
$GPGGA,062403.000,4116.4892,N,00159.2552,E,1,05,4.4,61.4,M,0.0,M,0.0,0000*7f
$GPGSA,M,3,01,11,17,20,32,,,,,,,,5.1,4.4,2.5*39
$GPGSV,2,1,05,01,64,103,48,11,43,136,50,17,39,299,47,20,76,333,48*75
$GPGSV,2,2,05,32,57,047,49*41
$GPRMC,062403.000,A,4116.4897,N,00159.2549,E,0.00,0.00,040413,,*05
$GPGGA,062403.000,4116.4897,N,00159.2549,E,1,05,4.4,64.4,M,0.0,M,0.0,0000*75
$GPGSA,M,3,01,11,17,20,32,,,,,,,,5.1,4.4,2.5*39
$GPGSV,2,1,05,01,64,103,49,11,43,136,49,17,39,299,49,20,76,333,46*7c
$GPGSV,2,2,05,32,57,047,48*40
$GPRMC,062403.000,A,4116.4894,N,00159.2551,E,0.00,0.00,040413,,*0f
$GPGGA,062403.000,4116.4894,N,00159.2551,E,1,05,4.4,66.2,M,0.0,M,0.0,0000*7b
$GPGSA,M,3,01,11,17,20,32,,,,,,,,5.1,4.4,2.5*39
$GPGSV,2,1,05,01,64,103,50,11,43,136,50,17,39,299,49,20,76,333,46*7c
$GPGSV,2,2,05,32,57,047,46*4e
$GPRMC,062403.000,A,4116.4892,N,00159.2551,E,0.00,0.00,040413,,*09
$GPGGA,062403.000,4116.4892,N,00159.2551,E,1,05,4.4,64.8,M,0.0,M,0.0,0000*75
$GPGSA,M,3,01,11,17,20,32,,,,,,,,5.1,4.4,2.5*39
$GPGSV,2,1,05,01,64,103,51,11,43,136,45,17,39,299,49,20,76,333,48*77
$GPGSV,2,2,05,32,57,047,48*40
$GPRMC,062403.000,A,4116.4890,N,00159.2542,E,0.00,0.00,040413,,*09
$GPGGA,062403.000,4116.4890,N,00159.2542,E,1,05,4.4,64.7,M,0.0,M,0.0,0000*7a
$GPGSA,M,3,01,11,17,20,32,,,,,,,,5.1,4.4,2.5*39
$GPGSV,2,1,05,01,64,103,49,11,43,136,49,17,39,299,47,20,76,333,49*7d
$GPGSV,2,2,05,32,57,047,50*49
$GPRMC,062404.000,A,4116.4881,N,00159.2535,E,0.00,0.00,040413,,*0e
$GPGGA,062404.000,4116.4881,N,00159.2535,E,1,05,4.4,64.5,M,0.0,M,0.0,0000*7f
$GPGSA,M,3,01,11,17,20,32,,,,,,,,5.1,4.4,2.5*39
$GPGSV,2,1,05,01,64,103,51,11,43,136,47,17,39,299,46,20,76,333,51*72
$GPGSV,2,2,05,32,57,047,51*48
$GPRMC,062404.000,A,4116.4888,N,00159.2536,E,0.00,0.00,040413,,*04
$GPGGA,062404.000,4116.4888,N,00159.2536,E,1,05,4.4,63.8,M,0.0,M,0.0,0000*7f
$GPGSA,M,3,01,11,17,20,32,,,,,,,,5.1,4.4,2.5*39
$GPGSV,2,1,05,01,64,103,50,11,43,136,49,17,39,299,48,20,76,333,46*75
$GPGSV,2,2,05,32,57,047,48*40
$GPRMC,062404.000,A,4116.4891,N,00159.2541,E,0.00,0.00,040413,,*0c
$GPGGA,062404.000,4116.4891,N,00159.2541,E,1,05,4.4,61.6,M,0.0,M,0.0,0000*7b
$GPGSA,M,3,01,11,17,20,32,,,,,,,,5.1,4.4,2.5*39
$GPGSV,2,1,05,01,64,103,53,11,43,136,48,17,39,299,49,20,76,333,46*76
$GPGSV,2,2,05,32,57,047,48*40
$GPRMC,062404.000,A,4116.4890,N,00159.2542,E,0.00,0.00,040413,,*0e
$GPGGA,062404.000,4116.4890,N,00159.2542,E,1,05,4.4,58.2,M,0.0,M,0.0,0000*77
$GPGSA,M,3,01,11,17,20,32,,,,,,,,5.1,4.4,2.5*39
$GPGSV,2,1,05,01,64,103,50,11,43,136,50,17,39,299,47,20,76,333,46*72
$GPGSV,2,2,05,32,57,047,47*4f
$GPRMC,062404.000,A,4116.4896,N,00159.2545,E,0.00,0.00,040413,,*0f
$GPGGA,062404.000,4116.4896,N,00159.2545,E,1,05,4.4,57.6,M,0.0,M,0.0,0000*7d
$GPGSA,M,3,01,11,17,20,32,,,,,,,,5.1,4.4,2.5*39
$GPGSV,2,1,05,01,64,103,50,11,43,136,48,17,39,299,49,20,76,333,48*7b
$GPGSV,2,2,05,32,57,047,51*48
$GPRMC,062404.000,A,4116.4897,N,00159.2547,E,0.00,0.00,040413,,*0c
$GPGGA,062404.000,4116.4897,N,00159.2547,E,1,05,4.4,57.9,M,0.0,M,0.0,0000*71
$GPGSA,M,3,01,11,17,20,32,,,,,,,,5.1,4.4,2.5*39
$GPGSV,2,1,05,01,64,103,50,11,43,136,47,17,39,299,47,20,76,333,48*7a
$GPGSV,2,2,05,32,57,047,50*49
$GPRMC,062404.000,A,4116.4892,N,00159.2548,E,0.00,0.00,040413,,*06
$GPGGA,062404.000,4116.4892,N,00159.2548,E,1,05,4.4,58.2,M,0.0,M,0.0,0000*7f
$GPGSA,M,3,01,11,17,20,32,,,,,,,,5.1,4.4,2.5*39
$GPGSV,2,1,05,01,64,103,51,11,43,136,48,17,39,299,49,20,76,333,48*7a
$GPGSV,2,2,05,32,57,047,48*40
$GPRMC,062404.000,A,4116.4898,N,00159.2545,E,0.00,0.00,040413,,*01
$GPGGA,062404.000,4116.4898,N,00159.2545,E,1,05,4.4,58.7,M,0.0,M,0.0,0000*7d
$GPGSA,M,3,01,11,17,20,32,,,,,,,,5.1,4.4,2.5*39
$GPGSV,2,1,05,01,64,103,50,11,43,136,49,17,39,299,47,20,76,333,46*7a
$GPGSV,2,2,05,32,57,047,48*40
$GPRMC,062404.000,A,4116.4896,N,00159.2545,E,0.00,0.00,040413,,*0f
$GPGGA,062404.000,4116.4896,N,00159.2545,E,1,05,4.4,56.1,M,0.0,M,0.0,0000*7b
$GPGSA,M,3,01,11,17,20,32,,,,,,,,5.1,4.4,2.5*39
$GPGSV,2,1,05,01,64,103,51,11,43,136,47,17,39,299,47,20,76,333,46*75
$GPGSV,2,2,05,32,57,047,49*41
$GPRMC,062404.000,A,4116.4892,N,00159.2543,E,0.00,0.00,040413,,*0d
$GPGGA,062404.000,4116.4892,N,00159.2543,E,1,05,4.4,58.5,M,0.0,M,0.0,0000*73
$GPGSA,M,3,01,11,17,20,32,,,,,,,,5.1,4.4,2.5*39
$GPGSV,2,1,05,01,64,103,50,11,43,136,49,17,39,299,47,20,76,333,47*7b
$GPGSV,2,2,05,32,57,047,50*49
$GPRMC,062405.000,A,4116.4893,N,00159.2546,E,0.00,0.00,040413,,*08
$GPGGA,062405.000,4116.4893,N,00159.2546,E,1,05,4.4,59.0,M,0.0,M,0.0,0000*72
$GPGSA,M,3,01,11,17,20,32,,,,,,,,5.1,4.4,2.5*39
$GPGSV,2,1,05,01,64,103,51,11,43,136,47,17,39,299,47,20,76,333,46*75
$GPGSV,2,2,05,32,57,047,47*4f
$GPRMC,062405.000,A,4116.4883,N,00159.2542,E,0.00,0.00,040413,,*0d
$GPGGA,062405.000,4116.4883,N,00159.2542,E,1,05,4.4,57.4,M,0.0,M,0.0,0000*7d
$GPGSA,M,3,01,11,17,20,32,,,,,,,,5.1,4.4,2.5*39
$GPGSV,2,1,05,01,64,103,51,11,43,136,47,17,39,299,47,20,76,333,46*75
$GPGSV,2,2,05,32,57,047,47*4f
$GPRMC,062405.000,A,4116.4882,N,00159.2533,E,0.00,0.00,040413,,*0a
$GPGGA,062405.000,4116.4882,N,00159.2533,E,1,05,4.4,60.0,M,0.0,M,0.0,0000*7a
$GPGSA,M,3,01,11,17,20,32,,,,,,,,5.1,4.4,2.5*39
$GPGSV,2,1,05,01,64,103,49,11,43,136,47,17,39,299,49,20,76,333,46*72
$GPGSV,2,2,05,32,57,047,47*4f
$GPRMC,062405.000,A,4116.4882,N,00159.2530,E,0.00,0.00,040413,,*09
$GPGGA,062405.000,4116.4882,N,00159.2530,E,1,05,4.4,62.1,M,0.0,M,0.0,0000*7a
$GPGSA,M,3,01,11,17,20,32,,,,,,,,5.1,4.4,2.5*39
$GPGSV,2,1,05,01,64,103,51,11,43,136,49,17,39,299,46,20,76,333,48*74
$GPGSV,2,2,05,32,57,047,50*49
$GPRMC,062405.000,A,4116.4869,N,00159.2522,E,0.00,0.00,040413,,*0f
$GPGGA,062405.000,4116.4869,N,00159.2522,E,1,05,4.4,63.6,M,0.0,M,0.0,0000*7a
$GPGSA,M,3,01,11,17,20,32,,,,,,,,5.1,4.4,2.5*39
$GPGSV,2,1,05,01,64,103,51,11,43,136,46,17,39,299,49,20,76,333,47*7b
$GPGSV,2,2,05,32,57,047,51*48
$GPRMC,062405.000,A,4116.4868,N,00159.2520,E,0.00,0.00,040413,,*0c
$GPGGA,062405.000,4116.4868,N,00159.2520,E,1,05,4.4,63.2,M,0.0,M,0.0,0000*7d
$GPGSA,M,3,01,11,17,20,32,,,,,,,,5.1,4.4,2.5*39
$GPGSV,2,1,05,01,64,103,50,11,43,136,46,17,39,299,49,20,76,333,47*7a
$GPGSV,2,2,05,32,57,047,51*48
$GPRMC,062405.000,A,4116.4869,N,00159.2518,E,0.00,0.00,040413,,*06
$GPGGA,062405.000,4116.4869,N,00159.2518,E,1,05,4.4,61.0,M,0.0,M,0.0,0000*77
$GPGSA,M,3,01,11,17,20,32,,,,,,,,5.1,4.4,2.5*39
$GPGSV,2,1,05,01,64,103,50,11,43,136,48,17,39,299,48,20,76,333,45*77
$GPGSV,2,2,05,32,57,047,47*4f
$GPRMC,062405.000,A,4116.4862,N,00159.2517,E,0.00,0.00,040413,,*02
$GPGGA,062405.000,4116.4862,N,00159.2517,E,1,05,4.4,60.9,M,0.0,M,0.0,0000*7b
$GPGSA,M,3,01,11,17,20,32,,,,,,,,5.1,4.4,2.5*39
$GPGSV,2,1,05,01,64,103,51,11,43,136,47,17,39,299,46,20,76,334,47*72
$GPGSV,2,2,05,32,57,047,48*40
$GPRMC,062405.000,A,4116.4868,N,00159.2513,E,0.00,0.00,040413,,*0c
$GPGGA,062405.000,4116.4868,N,00159.2513,E,1,05,4.4,65.4,M,0.0,M,0.0,0000*7d
$GPGSA,M,3,01,11,17,20,32,,,,,,,,5.1,4.4,2.5*39
$GPGSV,2,1,05,01,64,103,49,11,43,136,48,17,39,299,48,20,76,334,46*7b
$GPGSV,2,2,05,32,57,047,47*4f
$GPRMC,062405.000,A,4116.4869,N,00159.2514,E,0.00,0.00,040413,,*0a
$GPGGA,062405.000,4116.4869,N,00159.2514,E,1,05,4.4,62.0,M,0.0,M,0.0,0000*78
$GPGSA,M,3,01,11,17,20,32,,,,,,,,5.1,4.4,2.5*39
$GPGSV,2,1,05,01,64,103,50,11,43,136,47,17,39,299,47,20,76,334,47*72
$GPGSV,2,2,05,32,57,047,50*49
$GPRMC,062406.000,A,4116.4884,N,00159.2520,E,0.00,0.00,040413,,*0d
$GPGGA,062406.000,4116.4884,N,00159.2520,E,1,05,4.4,58.7,M,0.0,M,0.0,0000*71
$GPGSA,M,3,01,11,17,20,32,,,,,,,,5.1,4.4,2.5*39
$GPGSV,2,1,05,01,64,103,51,11,43,136,47,17,39,299,48,20,76,334,45*7e
$GPGSV,2,2,05,32,57,047,49*41
$GPRMC,062406.000,A,4116.4890,N,00159.2517,E,0.00,0.00,040413,,*0c
$GPGGA,062406.000,4116.4890,N,00159.2517,E,1,05,4.4,61.2,M,0.0,M,0.0,0000*7f
$GPGSA,M,3,01,11,17,20,32,,,,,,,,5.1,4.4,2.5*39
$GPGSV,2,1,05,01,64,103,49,11,43,136,47,17,39,299,48,20,76,334,47*75
$GPGSV,2,2,05,32,57,047,50*49
$GPRMC,062406.000,A,4116.4881,N,00159.2518,E,0.00,0.00,040413,,*03
$GPGGA,062406.000,4116.4881,N,00159.2518,E,1,05,4.4,61.1,M,0.0,M,0.0,0000*73
$GPGSA,M,3,01,11,17,20,32,,,,,,,,5.1,4.4,2.5*39
$GPGSV,2,1,05,01,64,103,51,11,43,136,46,17,39,299,45,20,76,334,46*71
$GPGSV,2,2,05,32,57,047,50*49
$GPRMC,062406.000,A,4116.4879,N,00159.2518,E,0.00,0.00,040413,,*04
$GPGGA,062406.000,4116.4879,N,00159.2518,E,1,05,4.4,61.9,M,0.0,M,0.0,0000*7c
$GPGSA,M,3,01,11,17,20,32,,,,,,,,5.1,4.4,2.5*39
$GPGSV,2,1,05,01,64,103,52,11,43,136,48,17,39,299,46,20,76,334,43*7a
$GPGSV,2,2,05,32,57,047,47*4f
$GPRMC,062406.000,A,4116.4881,N,00159.2518,E,0.00,0.00,040413,,*03
$GPGGA,062406.000,4116.4881,N,00159.2518,E,1,05,4.4,60.6,M,0.0,M,0.0,0000*75
$GPGSA,M,3,01,11,17,20,32,,,,,,,,5.1,4.4,2.5*39
$GPGSV,2,1,05,01,64,103,50,11,43,136,47,17,39,299,48,20,76,334,44*7e
$GPGSV,2,2,05,32,57,047,47*4f
$GPRMC,062406.000,A,4116.4884,N,00159.2529,E,0.00,0.00,040413,,*04
$GPGGA,062406.000,4116.4884,N,00159.2529,E,1,05,4.4,58.2,M,0.0,M,0.0,0000*7d
$GPGSA,M,3,01,11,17,20,32,,,,,,,,5.1,4.4,2.5*39
$GPGSV,2,1,05,01,64,103,49,11,43,136,45,17,39,299,49,20,76,334,46*77
$GPGSV,2,2,05,32,57,047,48*40
$GPRMC,062406.000,A,4116.4892,N,00159.2533,E,0.00,0.00,040413,,*08
$GPGGA,062406.000,4116.4892,N,00159.2533,E,1,05,4.4,58.5,M,0.0,M,0.0,0000*76
$GPGSA,M,3,01,11,17,20,32,,,,,,,,5.1,4.4,2.5*39
$GPGSV,2,1,05,01,64,103,52,11,43,136,46,17,39,299,44,20,76,334,45*70
$GPGSV,2,2,05,32,57,047,49*41
$GPRMC,062406.000,A,4116.4891,N,00159.2534,E,0.00,0.00,040413,,*0c
$GPGGA,062406.000,4116.4891,N,00159.2534,E,1,05,4.4,58.4,M,0.0,M,0.0,0000*73
$GPGSA,M,3,01,11,17,20,32,,,,,,,,5.1,4.4,2.5*39
$GPGSV,2,1,05,01,64,103,50,11,43,136,49,17,39,299,47,20,76,334,46*7d
$GPGSV,2,2,05,32,57,047,51*48
$GPRMC,062406.000,A,4116.4886,N,00159.2537,E,0.00,0.00,040413,,*09
$GPGGA,062406.000,4116.4886,N,00159.2537,E,1,05,4.4,56.6,M,0.0,M,0.0,0000*7a
$GPGSA,M,3,01,11,17,20,32,,,,,,,,5.1,4.4,2.5*39
$GPGSV,2,1,05,01,64,103,51,11,43,136,47,17,39,299,49,20,76,334,47*7d
$GPGSV,2,2,05,32,57,047,48*40
$GPRMC,062406.000,A,4116.4884,N,00159.2532,E,0.00,0.00,040413,,*0e
$GPGGA,062406.000,4116.4884,N,00159.2532,E,1,05,4.4,60.8,M,0.0,M,0.0,0000*76
$GPGSA,M,3,01,11,17,20,32,,,,,,,,5.1,4.4,2.5*39
$GPGSV,2,1,05,01,64,103,51,11,43,136,46,17,39,299,47,20,76,334,46*73
$GPGSV,2,2,05,32,57,047,48*40
$GPRMC,062407.000,A,4116.4874,N,00159.2525,E,0.00,0.00,040413,,*06
$GPGGA,062407.000,4116.4874,N,00159.2525,E,1,05,4.4,63.2,M,0.0,M,0.0,0000*77
$GPGSA,M,3,01,11,17,20,32,,,,,,,,5.1,4.4,2.5*39
$GPGSV,2,1,05,01,64,103,51,11,43,136,47,17,39,299,47,20,76,334,45*71
$GPGSV,2,2,05,32,57,047,49*41
$GPRMC,062407.000,A,4116.4866,N,00159.2523,E,0.00,0.00,040413,,*03
$GPGGA,062407.000,4116.4866,N,00159.2523,E,1,05,4.4,66.0,M,0.0,M,0.0,0000*75
$GPGSA,M,3,01,11,17,20,32,,,,,,,,5.1,4.4,2.5*39
$GPGSV,2,1,05,01,64,103,51,11,43,136,46,17,39,299,47,20,76,334,49*7c
$GPGSV,2,2,05,32,57,047,49*41
$GPRMC,062407.000,A,4116.4870,N,00159.2520,E,0.00,0.00,040413,,*07
$GPGGA,062407.000,4116.4870,N,00159.2520,E,1,05,4.4,67.9,M,0.0,M,0.0,0000*79
$GPGSA,M,3,01,11,17,20,32,,,,,,,,5.1,4.4,2.5*39
$GPGSV,2,1,05,01,64,103,51,11,43,136,47,17,39,299,47,20,76,334,46*72
$GPGSV,2,2,05,32,57,047,50*49
$GPRMC,062407.000,A,4116.4867,N,00159.2521,E,0.00,0.00,040413,,*00
$GPGGA,062407.000,4116.4867,N,00159.2521,E,1,05,4.4,64.1,M,0.0,M,0.0,0000*75
$GPGSA,M,3,01,11,17,20,32,,,,,,,,5.1,4.4,2.5*39
$GPGSV,2,1,05,01,64,103,51,11,43,136,49,17,39,299,48,20,76,334,47*72
$GPGSV,2,2,05,32,57,047,50*49
$GPRMC,062407.000,A,4116.4872,N,00159.2520,E,0.00,0.00,040413,,*05
$GPGGA,062407.000,4116.4872,N,00159.2520,E,1,05,4.4,63.9,M,0.0,M,0.0,0000*7f
$GPGSA,M,3,01,11,17,20,32,,,,,,,,5.1,4.4,2.5*39
$GPGSV,2,1,05,01,64,103,49,11,43,136,49,17,39,299,49,20,76,334,46*7b
$GPGSV,2,2,05,32,57,047,49*41
$GPRMC,062407.000,A,4116.4873,N,00159.2515,E,0.00,0.00,040413,,*02
$GPGGA,062407.000,4116.4873,N,00159.2515,E,1,05,4.4,65.6,M,0.0,M,0.0,0000*71
$GPGSA,M,3,01,11,17,20,32,,,,,,,,5.1,4.4,2.5*39
$GPGSV,2,1,05,01,64,103,50,11,43,136,49,17,39,299,47,20,76,334,48*73
$GPGSV,2,2,05,32,57,047,48*40
$GPRMC,062407.000,A,4116.4864,N,00159.2516,E,0.00,0.00,040413,,*07
$GPGGA,062407.000,4116.4864,N,00159.2516,E,1,05,4.4,65.6,M,0.0,M,0.0,0000*74
$GPGSA,M,3,01,11,17,20,32,,,,,,,,5.1,4.4,2.5*39
$GPGSV,2,1,05,01,64,103,48,11,43,136,49,17,39,299,48,20,76,334,47*7a
$GPGSV,2,2,05,32,57,047,50*49
$GPRMC,062407.000,A,4116.4869,N,00159.2514,E,0.00,0.00,040413,,*08
$GPGGA,062407.000,4116.4869,N,00159.2514,E,1,05,4.4,64.9,M,0.0,M,0.0,0000*75
$GPGSA,M,3,01,11,17,20,32,,,,,,,,5.1,4.4,2.5*39
$GPGSV,2,1,05,01,64,103,52,11,43,136,50,17,39,299,49,20,76,334,47*78
$GPGSV,2,2,05,32,57,047,49*41
$GPRMC,062407.000,A,4116.4867,N,00159.2511,E,0.00,0.00,040413,,*03
$GPGGA,062407.000,4116.4867,N,00159.2511,E,1,05,4.4,64.7,M,0.0,M,0.0,0000*70
$GPGSA,M,3,01,11,17,20,32,,,,,,,,5.1,4.4,2.5*39
$GPGSV,2,1,05,01,64,103,52,11,43,136,46,17,39,299,47,20,76,334,49*7f
$GPGSV,2,2,05,32,57,047,49*41
$GPRMC,062407.000,A,4116.4861,N,00159.2506,E,0.00,0.00,040413,,*03
$GPGGA,062407.000,4116.4861,N,00159.2506,E,1,05,4.4,61.9,M,0.0,M,0.0,0000*7b
$GPGSA,M,3,01,11,17,20,32,,,,,,,,5.1,4.4,2.5*39
$GPGSV,2,1,05,01,64,103,50,11,43,136,51,17,39,299,47,20,76,334,50*73
$GPGSV,2,2,05,32,57,047,51*48
$GPRMC,062408.000,A,4116.4860,N,00159.2500,E,0.00,0.00,040413,,*0b
$GPGGA,062408.000,4116.4860,N,00159.2500,E,1,05,4.4,65.4,M,0.0,M,0.0,0000*7a
$GPGSA,M,3,01,11,17,20,32,,,,,,,,5.1,4.4,2.5*39
$GPGSV,2,1,05,01,64,103,52,11,43,136,48,17,39,299,49,20,76,334,49*7f
$GPGSV,2,2,05,32,57,047,50*49
$GPRMC,062408.000,A,4116.4856,N,00159.2501,E,0.00,0.00,040413,,*0f
$GPGGA,062408.000,4116.4856,N,00159.2501,E,1,05,4.4,65.2,M,0.0,M,0.0,0000*78
$GPGSA,M,3,01,11,17,20,32,,,,,,,,5.1,4.4,2.5*39
$GPGSV,2,1,05,01,64,103,51,11,43,136,48,17,39,299,49,20,76,334,48*7d
$GPGSV,2,2,05,32,57,047,48*40
$GPRMC,062408.000,A,4116.4851,N,00159.2497,E,0.00,0.00,040413,,*06
$GPGGA,062408.000,4116.4851,N,00159.2497,E,1,05,4.4,64.8,M,0.0,M,0.0,0000*7a
$GPGSA,M,3,01,11,17,20,32,,,,,,,,5.1,4.4,2.5*39
$GPGSV,2,1,05,01,64,103,53,11,43,136,48,17,39,299,48,20,76,334,48*7e
$GPGSV,2,2,05,32,57,047,51*48
$GPRMC,062408.000,A,4116.4864,N,00159.2502,E,0.00,0.00,040413,,*0d
$GPGGA,062408.000,4116.4864,N,00159.2502,E,1,05,4.4,64.9,M,0.0,M,0.0,0000*70
$GPGSA,M,3,01,11,17,20,32,,,,,,,,5.1,4.4,2.5*39
$GPGSV,2,1,05,01,64,103,50,11,43,136,47,17,39,299,49,20,76,334,46*7d
$GPGSV,2,2,05,32,57,047,51*48
$GPRMC,062408.000,A,4116.4861,N,00159.2509,E,0.00,0.00,040413,,*03
$GPGGA,062408.000,4116.4861,N,00159.2509,E,1,05,4.4,63.5,M,0.0,M,0.0,0000*75
$GPGSA,M,3,01,11,17,20,32,,,,,,,,5.1,4.4,2.5*39
$GPGSV,2,1,05,01,64,103,52,11,43,136,44,17,39,299,48,20,76,334,46*7d
$GPGSV,2,2,05,32,57,047,49*41
$GPRMC,062408.000,A,4116.4856,N,00159.2502,E,0.00,0.00,040413,,*0c
$GPGGA,062408.000,4116.4856,N,00159.2502,E,1,05,4.4,63.8,M,0.0,M,0.0,0000*77
$GPGSA,M,3,01,11,17,20,32,,,,,,,,5.1,4.4,2.5*39
$GPGSV,2,1,05,01,64,103,51,11,43,136,48,17,39,299,49,20,76,334,47*72
$GPGSV,2,2,05,32,57,047,49*41
$GPRMC,062408.000,A,4116.4866,N,00159.2503,E,0.00,0.00,040413,,*0e
$GPGGA,062408.000,4116.4866,N,00159.2503,E,1,05,4.4,62.1,M,0.0,M,0.0,0000*7d
$GPGSA,M,3,01,11,17,20,32,,,,,,,,5.1,4.4,2.5*39
$GPGSV,2,1,05,01,64,103,50,11,43,136,47,17,39,299,46,20,76,334,49*7d
$GPGSV,2,2,05,32,57,047,48*40
$GPRMC,062408.000,A,4116.4860,N,00159.2502,E,0.00,0.00,040413,,*09
$GPGGA,062408.000,4116.4860,N,00159.2502,E,1,05,4.4,59.2,M,0.0,M,0.0,0000*71
$GPGSA,M,3,01,11,17,20,32,,,,,,,,5.1,4.4,2.5*39
$GPGSV,2,1,05,01,64,103,50,11,43,136,46,17,39,299,45,20,76,334,46*70
$GPGSV,2,2,05,32,57,047,48*40
$GPRMC,062408.000,A,4116.4873,N,00159.2510,E,0.00,0.00,040413,,*08
$GPGGA,062408.000,4116.4873,N,00159.2510,E,1,05,4.4,56.9,M,0.0,M,0.0,0000*74
$GPGSA,M,3,01,11,17,20,32,,,,,,,,5.1,4.4,2.5*39
$GPGSV,2,1,05,01,64,103,51,11,43,136,46,17,39,299,48,20,76,334,48*72
$GPGSV,2,2,05,32,57,047,51*48
$GPRMC,062408.000,A,4116.4877,N,00159.2518,E,0.00,0.00,040413,,*04
$GPGGA,062408.000,4116.4877,N,00159.2518,E,1,05,4.4,57.6,M,0.0,M,0.0,0000*76
$GPGSA,M,3,01,11,17,20,32,,,,,,,,5.1,4.4,2.5*39
$GPGSV,2,1,05,01,64,103,50,11,43,136,51,17,39,299,48,20,76,334,47*7a
$GPGSV,2,2,05,32,57,047,48*40
$GPRMC,062409.000,A,4116.4875,N,00159.2521,E,0.00,0.00,040413,,*0d
$GPGGA,062409.000,4116.4875,N,00159.2521,E,1,05,4.4,52.8,M,0.0,M,0.0,0000*74
$GPGSA,M,3,01,11,17,20,32,,,,,,,,5.1,4.4,2.5*39
